club_id,club_name,club_name_ascii,league,country,city,stadium,city_lat,city_lon,city_source_url,city_geo_source,city_match_confidence,manual_review_flag,notes,city_key,city_review_notes
c_abha_a8d5b324,Abha Club,Abha Club,Saudi First Division League,Saudi Arabia,Abha,Prince Sultan bin Abdulaziz Sports City Stadium,18.21639,42.50528,https://www.geonames.org/110690,geonames_searchJSON,high,False,,saudi-arabia__abha__4826cb91,GeoNames name_equals match; selected 'Abha'; admin 'عسير'; feature PPLA; population 210886; HTTP fallback was used because the GeoNames HTTPS certificate failed verification.
c_ac_milan_118eeb6e,AC Milan,AC Milan,Serie A,Italy,Milan,Giuseppe Meazza Stadium,45.46427,9.18951,https://www.geonames.org/3173435,geonames_searchJSON,high,False,,italy__milan__c8407de8,GeoNames name_equals match; selected 'Milan'; admin 'Lombardia'; feature PPLA; population 1371498; 5.3 km from trusted local centroid; top-vs-next score margin 62.7; HTTP fallback was used because the GeoNames HTTPS certificate failed verification.
c_accra_hearts_of_oak_sc_5dd04a93,Accra Hearts of Oak S.C.,Accra Hearts of Oak S.C.,Ghana Premier League,Ghana,Accra,Accra Sports Stadium,5.55602,-0.1969,https://www.geonames.org/2306104,geonames_searchJSON,high,False,Step 5 manual review canonical rename from 'Accra Hearts of Oak SC' to 'Accra Hearts of Oak S.C.'.,ghana__accra__500f1052,GeoNames name_equals match; selected 'Accra'; admin 'Greater Accra'; feature PPLC; population 1963264; 0.7 km from trusted local centroid; top-vs-next score margin 104.0; HTTP fallback was used because the GeoNames HTTPS certificate failed verification.
c_ae_kifisias_b52d38fc,A.E. Kifisia F.C.,A.E. Kifisia F.C.,Super League Greece,Greece,Nikaia,Neapoli Stadium,37.96667,23.65,https://www.geonames.org/256429,geonames_searchJSON,medium,False,,greece__nikaia__93de8026,GeoNames name_equals match; selected 'Níkaia'; admin 'Αττική'; feature PPLA3; population 89380; top-vs-next score margin 4.3; spot-check recommended before promoting to final club coordinates; HTTP fallback was used because the GeoNames HTTPS certificate failed verification. NOTE: Verified.
c_aek_athens_72925ed6,AEK Athens,AEK Athens,Super League Greece,Greece,Nea Filadelfeia,Agia Sophia Stadium,38.03491,23.73811,https://www.geonames.org/256621,geonames_searchJSON,high,False,,greece__nea-filadelfeia__e7977283,GeoNames name_equals match; selected 'Néa Filadélfeia'; admin 'Αττική'; feature PPLA3; population 25734; 0.4 km from trusted local centroid; top-vs-next score margin 86.3; HTTP fallback was used because the GeoNames HTTPS certificate failed verification.
c_ael_431116e5,Athlitiki Enosi Larissa F.C.,Athlitiki Enosi Larissa F.C.,Super League Greece 2,Greece,Larissa,AEL FC Arena,39.62847,22.42112,https://www.geonames.org/258576,geonames_searchJSON,low,False,,greece__larissa__a035c8e4,GeoNames name_equals match; selected 'Lárisa'; admin 'Θεσσαλία'; feature PPLA; population 146926; spot-check recommended before promoting to final club coordinates; HTTP fallback was used because the GeoNames HTTPS certificate failed verification. NOTE: Verified.
c_ael_limassol_2cf0940b,AEL Limassol,AEL Limassol,Cypriot First Division,Cyprus,Kolossi,Alphamega Stadium,34.66865,32.93375,https://www.geonames.org/146451,geonames_searchJSON,high,False,,cyprus__kolossi__faffbad3,GeoNames name_equals match; selected 'Kolossi'; admin 'Επαρχία Λάρνακας'; feature PPL; population 6478; 2.8 km from trusted local centroid; HTTP fallback was used because the GeoNames HTTPS certificate failed verification.
c_afc_bournemouth_61e18bcd,AFC Bournemouth,AFC Bournemouth,Premier League,England,Bournemouth,Dean Court,50.72048,-1.8795,https://www.geonames.org/2655095,geonames_searchJSON,high,False,Merged aliases/source variants: AFC Bournemouth; Bournemouth.,england__bournemouth__76f7ee7d,GeoNames name_equals match; selected 'Bournemouth'; admin 'England'; feature PPLA2; population 163600; 3.3 km from trusted local centroid; HTTP fallback was used because the GeoNames HTTPS certificate failed verification.
c_agf_aarhus_255f8d4c,Aarhus Gymnastikforening,Aarhus Gymnastikforening,Danish Superliga,Denmark,Aarhus,Vejlby Stadium,56.15674,10.21076,https://www.geonames.org/2624652,geonames_searchJSON,high,False,,denmark__aarhus__55d77285,GeoNames name_equals match; selected 'Århus'; admin 'Region Midtjylland'; feature PPLA2; population 285273; 2.9 km from trusted local centroid; HTTP fallback was used because the GeoNames HTTPS certificate failed verification.
c_agmk_a616cb6f,AGMK,AGMK,Uzbekistan Super League,Uzbekistan,Olmaliq,AGMK Stadium,40.84472,69.59833,https://www.geonames.org/1513064,geonames_searchJSON,high,False,,uzbekistan__olmaliq__0a56ab9d,GeoNames name_equals match; selected 'Olmaliq'; admin 'Toshkent viloyati'; feature PPL; population 133400; 0.2 km from trusted local centroid; HTTP fallback was used because the GeoNames HTTPS certificate failed verification.
c_aik_9fa4ead4,AIK Fotboll,AIK Fotboll,Allsvenskan,Sweden,Stockholm,Nationalarenan,59.32938,18.06871,https://www.geonames.org/2673730,geonames_searchJSON,high,False,,sweden__stockholm__40fa3e82,GeoNames name_equals match; selected 'Stockholm'; admin 'Stockholms län'; feature PPLC; population 1515017; HTTP fallback was used because the GeoNames HTTPS certificate failed verification.
c_aj_auxerre_5c7942ef,AJ Auxerre,AJ Auxerre,Ligue 1,France,Auxerre,Stade de l'Abbé-Deschamps,47.7996,3.57033,https://www.geonames.org/3035843,geonames_searchJSON,high,False,Merged aliases/source variants: AJ Auxerre; Auxerre.,france__auxerre__9554581e,GeoNames name_equals match; selected 'Auxerre'; admin 'Bourgogne'; feature PPLA2; population 41516; 2.0 km from trusted local centroid; HTTP fallback was used because the GeoNames HTTPS certificate failed verification.
c_ajax_955fab76,AFC Ajax,AFC Ajax,Eredivisie,Netherlands,Amsterdam,Johan Cruyff Arena,52.37403,4.88969,https://www.geonames.org/2759794,geonames_searchJSON,high,False,,netherlands__amsterdam__60fce071,GeoNames name_equals match; selected 'Amsterdam'; admin 'Noord-Holland'; feature PPLC; population 741636; HTTP fallback was used because the GeoNames HTTPS certificate failed verification.
c_akron_tolyatti_7891723e,Akron Tolyatti,Akron Tolyatti,Russian Premier League,Russia,Samara,Samara Arena,53.20767,50.13553,https://www.geonames.org/499099,geonames_searchJSON,high,False,,russia__samara__135c829f,GeoNames name_equals match; selected 'Samara'; admin 'Самарская Область'; feature PPLA; population 1163399; 10.3 km from trusted local centroid; top-vs-next score margin 102.0; HTTP fallback was used because the GeoNames HTTPS certificate failed verification.
c_al_ahli_c686fb82,Al-Ahli Saudi FC,Al-Ahli Saudi FC,Saudi Pro League,Saudi Arabia,Jeddah,King Abdullah Sports City,21.49012,39.18624,https://www.geonames.org/105343,geonames_searchJSON,high,False,Step 5 manual review canonical rename from 'Al Ahli' to 'Al-Ahli Saudi FC'. Merged aliases/source variants: Al Ahli; Al-Ahli.,saudi-arabia__jeddah__ef192a1c,GeoNames name_equals match; selected 'Jeddah'; admin 'مكة المكرّمة'; feature PPL; population 4697000; 30.4 km from trusted local centroid; HTTP fallback was used because the GeoNames HTTPS certificate failed verification.
c_al_ahly_d8f224e8,Al Ahly SC,Al Ahly SC,Egyptian Premier League,Egypt,Cairo,Cairo International Stadium,30.06263,31.24967,https://www.geonames.org/360630,geonames_searchJSON,high,False,Step 5 manual review canonical rename from 'Al Ahly' to 'Al Ahly SC'.,egypt__cairo__f51a7213,GeoNames name_equals match; selected 'Cairo'; admin 'القاهرة'; feature PPLC; population 9606916; 12.3 km from trusted local centroid; HTTP fallback was used because the GeoNames HTTPS certificate failed verification.
c_al_ain_c5137584,Al Ain FC,Al Ain FC,UAE Pro League,United Arab Emirates,Al Ain,Hazza bin Zayed Stadium,24.19167,55.76056,https://www.geonames.org/292913,geonames_searchJSON,low,False,Step 5 manual review canonical rename from 'Al Ain' to 'Al Ain FC'.,united-arab-emirates__al-ain__e6f0be89,GeoNames name_equals match; selected 'Al Ain City'; admin 'أبو ظبي'; feature PPL; population 846747; 7.5 km from trusted local centroid; spot-check recommended before promoting to final club coordinates; HTTP fallback was used because the GeoNames HTTPS certificate failed verification. NOTE: Verified.
c_al_arabi_aed4b46c,Al-Arabi SC (Qatar),Al-Arabi SC (Qatar),Qatar Stars League,Qatar,Doha,Grand Hamad Stadium,25.28545,51.53096,https://www.geonames.org/290030,geonames_searchJSON,high,False,Step 5 manual review canonical rename from 'Al Arabi' to 'Al-Arabi SC (Qatar)'.,qatar__doha__d0c76c19,GeoNames name_equals match; selected 'Doha'; admin 'بَلَدِيَّة اَلدَّوْحَة'; feature PPLC; population 344939; 5.5 km from trusted local centroid; HTTP fallback was used because the GeoNames HTTPS certificate failed verification.
c_al_bataeh_bbe9608c,Al Bataeh Club,Al Bataeh Club,UAE Pro League,United Arab Emirates,Al Bataeh,Al Bataeh Stadium,25.271944,55.736389,https://geohack.toolforge.org/geohack.php?pagename=Al_Bataeh&params=25_16_19_N_55_44_11_E_region:AE_type:city(6000),geohack,low,False,,united-arab-emirates__al-bataeh__c806c9a3,"GeoNames returned no populated-place matches for this city-country query. NOTE: No GeoNames link, found alternative."
c_al_duhail_917aca16,Al Duhail,Al Duhail,Qatar Stars League,Qatar,Doha,Lekhwiya Sports Stadium,25.28545,51.53096,https://www.geonames.org/290030,geonames_searchJSON,high,False,,qatar__doha__d0c76c19,GeoNames name_equals match; selected 'Doha'; admin 'بَلَدِيَّة اَلدَّوْحَة'; feature PPLC; population 344939; 5.5 km from trusted local centroid; HTTP fallback was used because the GeoNames HTTPS certificate failed verification.
c_al_ettifaq_807c8264,Al-Ettifaq Club,Al-Ettifaq Club,Saudi Pro League,Saudi Arabia,Dammam,Al-Ettifaq Club Stadium,26.43442,50.10326,https://www.geonames.org/110336,geonames_searchJSON,high,False,Merged Al Etiffaq + Al Ettifaq,saudi-arabia__dammam__72268880,GeoNames name_equals match; selected 'Dammam'; admin 'المنطقة الشرقية'; feature PPLA; population 1252523; 12.1 km from trusted local centroid; HTTP fallback was used because the GeoNames HTTPS certificate failed verification.
c_al_faisaly_d08621cd,Al-Faisaly SC,Al-Faisaly SC,Jordanian Pro League,Jordan,Amman,Amman International Stadium,31.95522,35.94503,https://www.geonames.org/250441,geonames_searchJSON,low,False,,jordan__amman__870dc7a5,GeoNames name_equals match; selected 'Amman'; admin 'محافظة عمّان'; feature PPLC; population 1275857; 564.9 km from trusted local centroid; spot-check recommended before promoting to final club coordinates; HTTP fallback was used because the GeoNames HTTPS certificate failed verification. NOTE: Manually verified.
c_al_fayha_22bab1f3,Al-Fayha Club,Al-Fayha Club,Saudi Pro League,Saudi Arabia,Al Majma'ah,Prince Salman Bin Abdulaziz Sport City Stadium,25.91097,45.35665,https://www.geonames.org/109194,geonames_searchJSON,high,False,Step 5 manual review canonical rename from 'Al Fayha' to 'Al-Fayha Club'.,saudi-arabia__al-majma-ah__e112375f,GeoNames name_equals match; selected 'Al Majma‘ah'; admin 'منطقة الرياض‎'; feature PPLA2; 2.9 km from trusted local centroid; top-vs-next score margin 83.0; HTTP fallback was used because the GeoNames HTTPS certificate failed verification.
c_al_gharafa_cf3f2df9,Al Gharafa,Al Gharafa,Qatar Stars League,Qatar,Doha,Thani bin Jassim Stadium,25.28545,51.53096,https://www.geonames.org/290030,geonames_searchJSON,high,False,,qatar__doha__d0c76c19,GeoNames name_equals match; selected 'Doha'; admin 'بَلَدِيَّة اَلدَّوْحَة'; feature PPLC; population 344939; 5.5 km from trusted local centroid; HTTP fallback was used because the GeoNames HTTPS certificate failed verification.
c_al_hilal_67047244,Al Hilal SFC,Al Hilal SFC,Saudi Pro League,Saudi Arabia,Riyadh,Kingdom Arena,24.68773,46.72185,https://www.geonames.org/108410,geonames_searchJSON,low,False,,saudi-arabia__riyadh__e7a5cde7,GeoNames name_equals match; selected 'Riyadh'; admin 'منطقة الرياض‎'; feature PPLC; population 4205961; 288.0 km from trusted local centroid; spot-check recommended before promoting to final club coordinates; HTTP fallback was used because the GeoNames HTTPS certificate failed verification. NOTE: Verified.
c_al_hussein_1fe1435d,Al-Hussein SC (Irbid),Al-Hussein SC (Irbid),Jordanian Pro League,Jordan,Irbid,Al-Hassan Stadium,32.55556,35.85,https://www.geonames.org/248946,geonames_searchJSON,high,False,,jordan__irbid__f5b0aa53,GeoNames name_equals match; selected 'Irbid'; admin 'اربد'; feature PPLA; population 569068; 2.2 km from trusted local centroid; HTTP fallback was used because the GeoNames HTTPS certificate failed verification.
c_al_ittihad_715274c9,Al-Ittihad Club,Al-Ittihad Club,Saudi Pro League,Saudi Arabia,Jeddah,King Abdullah Sports City Stadium,21.49012,39.18624,https://www.geonames.org/105343,geonames_searchJSON,high,False,,saudi-arabia__jeddah__ef192a1c,GeoNames name_equals match; selected 'Jeddah'; admin 'مكة المكرّمة'; feature PPL; population 4697000; 30.4 km from trusted local centroid; HTTP fallback was used because the GeoNames HTTPS certificate failed verification.
c_al_jazira_3cf19a97,Al Jazira,Al Jazira,UAE Pro League,United Arab Emirates,Abu Dhabi,Mohammed Bin Zayed Stadium,24.45118,54.39696,https://www.geonames.org/292968,geonames_searchJSON,high,False,,united-arab-emirates__abu-dhabi__2f0f3c6b,GeoNames name_equals match; selected 'Abu Dhabi'; admin 'أبو ظبي'; feature PPLC; population 1807000; 15.4 km from trusted local centroid; HTTP fallback was used because the GeoNames HTTPS certificate failed verification.
c_al_karma_f9b63d11,Al-Karma SC,Al-Karma SC,Iraqi First Division League,Iraq,Fallujah,Al-Fallujah Stadium,33.34913,43.78599,https://www.geonames.org/99454,geonames_searchJSON,low,False,Step 5 manual correction: Aymen Hussein reassigned from source-listed Al-Khor to Al-Karma SC. Step 5 manual review canonical rename from 'Al-Karma' to 'Al-Karma SC'.,iraq__fallujah__b131d0a2,GeoNames name_equals match; selected 'Al Fallūjah'; admin 'الانبار'; feature PPLA2; population 190159; 2.3 km from trusted local centroid; spot-check recommended before promoting to final club coordinates; HTTP fallback was used because the GeoNames HTTPS certificate failed verification. NOTE: Verified.
c_al_najma_9b74810f,Al-Najma SC (Saudi Arabia),Al-Najma SC (Saudi Arabia),Saudi First Division League,Saudi Arabia,Unaizah,Al-Najma Club Stadium,26.08793,43.96368,https://www.geonames.org/101732,geonames_searchJSON,medium,False,Step 5 manual review canonical rename from 'Al Najma' to 'Al-Najma SC (Saudi Arabia)'.,saudi-arabia__unaizah__ca294e3d,GeoNames name_equals match; selected 'Unaizah'; admin 'القصيم'; feature PPL; population 183319; top-vs-next score margin 12.8; spot-check recommended before promoting to final club coordinates; HTTP fallback was used because the GeoNames HTTPS certificate failed verification. NOTE: Manually corrected.
c_al_nasr_0bf2f525,Al-Nasr SC (Dubai),Al-Nasr SC (Dubai),UAE Pro League,United Arab Emirates,Dubai,Al-Maktoum Stadium,25.07725,55.30927,https://www.geonames.org/292223,geonames_searchJSON,high,False,Step 5 manual review canonical rename from 'Al-Nasr' to 'Al-Nasr SC (Dubai)'.,united-arab-emirates__dubai__454503b5,GeoNames name_equals match; selected 'Dubai'; admin 'دبي'; feature PPLA; population 3790000; 20.5 km from trusted local centroid; HTTP fallback was used because the GeoNames HTTPS certificate failed verification.
c_al_nassr_4ed92392,Al-Nassr FC,Al-Nassr FC,Saudi Pro League,Saudi Arabia,Riyadh,King Saud University Stadium,24.68773,46.72185,https://www.geonames.org/108410,geonames_searchJSON,low,False,Step 5 manual review canonical rename from 'Al Nassr' to 'Al-Nassr FC'.,saudi-arabia__riyadh__e7a5cde7,GeoNames name_equals match; selected 'Riyadh'; admin 'منطقة الرياض‎'; feature PPLC; population 4205961; 288.0 km from trusted local centroid; spot-check recommended before promoting to final club coordinates; HTTP fallback was used because the GeoNames HTTPS certificate failed verification. NOTE: Verified.
c_al_qadsiah_2c418904,Al Qadsiah FC,Al Qadsiah FC,Saudi Pro League,Saudi Arabia,Khobar,Prince Saud bin Jalawi Sports City Stadium,26.27944,50.20833,https://www.geonames.org/109323,geonames_searchJSON,high,False,,saudi-arabia__khobar__e4258904,GeoNames name_equals match; selected 'Khobar'; admin 'المنطقة الشرقية'; feature PPL; population 165799; 10.1 km from trusted local centroid; HTTP fallback was used because the GeoNames HTTPS certificate failed verification.
c_al_quwa_al_jawiya_d23a171e,Al-Quwa Al-Jawiya,Al-Quwa Al-Jawiya,Iraq Stars League,Iraq,Baghdad,Al-Shaab Stadium,33.34058,44.40088,https://www.geonames.org/98182,geonames_searchJSON,high,False,,iraq__baghdad__3a5c37cd,GeoNames name_equals match; selected 'Baghdad'; admin 'بغداد'; feature PPLC; population 7216000; 2.0 km from trusted local centroid; HTTP fallback was used because the GeoNames HTTPS certificate failed verification.
c_al_rayyan_e5871040,Al-Rayyan SC,Al-Rayyan SC,Qatar Stars League,Qatar,Al Rayyan,Ahmad bin Ali Stadium,25.29194,51.42444,https://www.geonames.org/289888,geonames_searchJSON,low,False,,qatar__al-rayyan__29f87b48,GeoNames name_equals match; selected 'Ar Rayyān'; admin 'بَلَدِيَّة اَلرَّيَّان'; feature PPLA; population 272465; 9.4 km from trusted local centroid; spot-check recommended before promoting to final club coordinates; HTTP fallback was used because the GeoNames HTTPS certificate failed verification. NOTE: Verified.
c_al_riyadh_679deb94,Al-Riyadh SC,Al-Riyadh SC,Saudi Pro League,Saudi Arabia,Riyadh,Prince Turki bin Abdul Aziz Stadium,24.68773,46.72185,https://www.geonames.org/108410,geonames_searchJSON,low,False,,saudi-arabia__riyadh__e7a5cde7,GeoNames name_equals match; selected 'Riyadh'; admin 'منطقة الرياض‎'; feature PPLC; population 4205961; 288.0 km from trusted local centroid; spot-check recommended before promoting to final club coordinates; HTTP fallback was used because the GeoNames HTTPS certificate failed verification. NOTE: Verified.
c_al_sadd_a599a00e,Al Sadd SC,Al Sadd SC,Qatar Stars League,Qatar,Doha,Jassim Bin Hamad Stadium,25.28545,51.53096,https://www.geonames.org/290030,geonames_searchJSON,high,False,,qatar__doha__d0c76c19,GeoNames name_equals match; selected 'Doha'; admin 'بَلَدِيَّة اَلدَّوْحَة'; feature PPLC; population 344939; 5.5 km from trusted local centroid; HTTP fallback was used because the GeoNames HTTPS certificate failed verification.
c_al_sailiaya_6158b2fd,Al-Sailiya SC,Al-Sailiya SC,Qatar Stars League,Qatar,Doha,Hamad bin Khalifa Stadium,25.28545,51.53096,https://www.geonames.org/290030,geonames_searchJSON,high,False,,qatar__doha__d0c76c19,GeoNames name_equals match; selected 'Doha'; admin 'بَلَدِيَّة اَلدَّوْحَة'; feature PPLC; population 344939; 5.5 km from trusted local centroid; HTTP fallback was used because the GeoNames HTTPS certificate failed verification.
c_al_shabab_e27f5149,Al Shabab Club,Al Shabab Club,Saudi Pro League,Saudi Arabia,Riyadh,Al-Shabab Club Stadium,24.68773,46.72185,https://www.geonames.org/108410,geonames_searchJSON,low,False,Step 5 manual review canonical rename from 'Al-Shabab' to 'Al Shabab Club'.,saudi-arabia__riyadh__e7a5cde7,GeoNames name_equals match; selected 'Riyadh'; admin 'منطقة الرياض‎'; feature PPLC; population 4205961; 288.0 km from trusted local centroid; spot-check recommended before promoting to final club coordinates; HTTP fallback was used because the GeoNames HTTPS certificate failed verification. NOTE: Verified.
c_al_shamal_91835f7b,Al-Shamal SC,Al-Shamal SC,Qatar Stars League 2,Qatar,Madinat ash Shamal,Al-Shamal SC Stadium,26.12933,51.2009,https://www.geonames.org/289739,geonames_searchJSON,high,False,Step 5 manual review canonical rename from 'Al Shamal' to 'Al-Shamal SC'.,qatar__madinat-ash-shamal__5988c9dd,GeoNames name_equals match; selected 'Madīnat ash Shamāl'; admin 'بلدية مدينة الشمال'; feature PPLA; population 5267; 2.4 km from trusted local centroid; HTTP fallback was used because the GeoNames HTTPS certificate failed verification.
c_al_shorta_03f6bef7,Al-Shorta SC,Al-Shorta SC,Syrian Premier League,Syria,Damascus,Abbasiyyin Stadium,33.5102,36.29128,https://www.geonames.org/170654,geonames_searchJSON,high,False,Step 5 manual review canonical rename from 'Al-Shorta' to 'Al-Shorta SC'.,syria__damascus__24aa259a,GeoNames name_equals match; selected 'Damascus'; admin 'دمشق'; feature PPLC; population 1569394; 3.0 km from trusted local centroid; HTTP fallback was used because the GeoNames HTTPS certificate failed verification.
c_al_talaba_856167fb,Al-Talaba,Al-Talaba,Iraq Stars League,Iraq,Baghdad,Al Talaba Stadium,33.34058,44.40088,https://www.geonames.org/98182,geonames_searchJSON,high,False,,iraq__baghdad__3a5c37cd,GeoNames name_equals match; selected 'Baghdad'; admin 'بغداد'; feature PPLC; population 7216000; 2.0 km from trusted local centroid; HTTP fallback was used because the GeoNames HTTPS certificate failed verification.
c_al_ula_28613b64,Al-Ula FC,Al-Ula FC,Saudi First Division League,Saudi Arabia,Medina,Prince Mohammed bin Abdul Aziz Stadium,24.46861,39.61417,https://www.geonames.org/109223,geonames_searchJSON,low,False,,saudi-arabia__medina__27a4b246,GeoNames name_equals match retained for Medina Saudi Arabia; canonical stadium label has already been updated.
c_al_wahda_7ae987ab,Al Wahda FC,Al Wahda FC,UAE Pro League,United Arab Emirates,Abu Dhabi,Al Nahyan Stadium,24.45118,54.39696,https://www.geonames.org/292968,geonames_searchJSON,high,False,Step 5 manual review canonical rename from 'Al-Wahda' to 'Al Wahda FC'.,united-arab-emirates__abu-dhabi__2f0f3c6b,GeoNames name_equals match; selected 'Abu Dhabi'; admin 'أبو ظبي'; feature PPLC; population 1807000; 15.4 km from trusted local centroid; HTTP fallback was used because the GeoNames HTTPS certificate failed verification.
c_al_wakrah_abf60aa2,Al Wakrah,Al Wakrah,Qatar Stars League,Qatar,Al Wakrah,Al Janoub Stadium,25.17151,51.60337,https://www.geonames.org/289915,geonames_searchJSON,high,False,,qatar__al-wakrah__912ee19a,GeoNames name_equals match; selected 'Al Wakrah'; admin 'بَلَدِيَّة اَلْوَكْرَة'; feature PPLA; population 26436; 3.2 km from trusted local centroid; HTTP fallback was used because the GeoNames HTTPS certificate failed verification.
c_al_wehdat_2cc29034,Al-Wehdat SC,Al-Wehdat SC,Jordan Premier League,Jordan,Amman,King Abdullah II Stadium,31.95522,35.94503,https://www.geonames.org/250441,geonames_searchJSON,low,False,Step 5 manual review canonical rename from 'Al-Wehdat' to 'Al-Wehdat SC'.,jordan__amman__870dc7a5,GeoNames name_equals match; selected 'Amman'; admin 'محافظة عمّان'; feature PPLC; population 1275857; 564.9 km from trusted local centroid; spot-check recommended before promoting to final club coordinates; HTTP fallback was used because the GeoNames HTTPS certificate failed verification. NOTE: Manually verified.
c_al_zawraa_7bba0fc0,Al-Zawraa,Al-Zawraa,Iraq Stars League,Iraq,Baghdad,Al-Zawraa Stadium,33.34058,44.40088,https://www.geonames.org/98182,geonames_searchJSON,high,False,,iraq__baghdad__3a5c37cd,GeoNames name_equals match; selected 'Baghdad'; admin 'بغداد'; feature PPLC; population 7216000; 2.0 km from trusted local centroid; HTTP fallback was used because the GeoNames HTTPS certificate failed verification.
c_alanyaspor_661d3784,Alanyaspor,Alanyaspor,Süper Lig,Turkey,Alanya,Alanya Oba Stadium,36.54375,31.99982,https://www.geonames.org/324190,geonames_searchJSON,high,False,,turkey__alanya__5c9fff14,GeoNames name_equals match; selected 'Alanya'; admin 'Antalya'; feature PPLA2; population 364180; 7.4 km from trusted local centroid; HTTP fallback was used because the GeoNames HTTPS certificate failed verification.
c_albirex_niigata_cab00434,Albirex Niigata,Albirex Niigata,J2 League,Japan,Niigata,Denka Big Swan Stadium,37.92259,139.04125,https://www.geonames.org/1855431,geonames_searchJSON,high,False,,japan__niigata__2b37e024,GeoNames name_equals match; selected 'Niigata'; admin '新潟県'; feature PPLA; population 797591; 4.7 km from trusted local centroid; HTTP fallback was used because the GeoNames HTTPS certificate failed verification.
c_almere_11b3096f,Almere,Almere,Eerste Divisie,Netherlands,Almere,Yanmar Stadion,52.37025,5.21413,https://www.geonames.org/2759879,geonames_searchJSON,high,False,,netherlands__almere__06da8b29,GeoNames name_equals match; selected 'Almere Stad'; admin 'Flevoland'; feature PPL; population 176432; 3.2 km from trusted local centroid; HTTP fallback was used because the GeoNames HTTPS certificate failed verification.
c_anderlecht_b0025a96,Anderlecht,Anderlecht,Belgian Pro League,Belgium,Anderlecht,Lotto Park,50.83619,4.31454,https://www.geonames.org/2803201,geonames_searchJSON,high,False,,belgium__anderlecht__9ef158b9,GeoNames name_equals match; selected 'Anderlecht'; admin 'Brussel'; feature PPLA4; population 160553; 1.2 km from trusted local centroid; HTTP fallback was used because the GeoNames HTTPS certificate failed verification.
c_angers_df67ea45,Angers,Angers,Ligue 1,France,Angers,Stade Raymond Kopa,47.47156,-0.55202,https://www.geonames.org/3037656,geonames_searchJSON,high,False,,france__angers__31a56b8f,GeoNames name_equals match; selected 'Angers'; admin 'Pays de la Loire'; feature PPLA2; population 168279; 2.1 km from trusted local centroid; HTTP fallback was used because the GeoNames HTTPS certificate failed verification.
c_antwerp_7961b08d,Antwerp,Antwerp,Belgian Pro League,Belgium,Antwerp,Stadion Broodstraat,51.22047,4.40026,https://www.geonames.org/2803138,geonames_searchJSON,low,False,,belgium__antwerp__3754ba80,GeoNames name_equals match; selected 'Antwerpen'; admin 'Vlaanderen'; feature PPL; population 529247; 5.1 km from trusted local centroid; spot-check recommended before promoting to final club coordinates; HTTP fallback was used because the GeoNames HTTPS certificate failed verification. NOTE: Verified.
c_apoel_nicosia_af3c6796,APOEL FC,APOEL FC,Cypriot First Division,Cyprus,Nicosia,GSP Stadium,35.17284,33.35397,https://www.geonames.org/146268,geonames_searchJSON,high,False,,cyprus__nicosia__9acebf3a,GeoNames name_equals match; selected 'Nicosia'; admin 'Επαρχία Λευκωσίας'; feature PPLC; population 200452; HTTP fallback was used because the GeoNames HTTPS certificate failed verification.
c_apollon_limassol_b6137677,Apollon Limassol FC,Apollon Limassol FC,Cypriot First Division,Cyprus,Kolossi,Alphamega Stadium,34.66865,32.93375,https://www.geonames.org/146451,geonames_searchJSON,high,False,,cyprus__kolossi__faffbad3,GeoNames name_equals match; selected 'Kolossi'; admin 'Επαρχία Λάρνακας'; feature PPL; population 6478; 2.8 km from trusted local centroid; HTTP fallback was used because the GeoNames HTTPS certificate failed verification.
c_aris_limassol_d501bdb4,Aris Limassol FC,Aris Limassol FC,Cypriot First Division,Cyprus,Kolossi,Alphamega Stadium,34.66865,32.93375,https://www.geonames.org/146451,geonames_searchJSON,high,False,,cyprus__kolossi__faffbad3,GeoNames name_equals match; selected 'Kolossi'; admin 'Επαρχία Λάρνακας'; feature PPL; population 6478; 2.8 km from trusted local centroid; HTTP fallback was used because the GeoNames HTTPS certificate failed verification.
c_arsenal_93d10937,Arsenal F.C.,Arsenal F.C.,Premier League,England,London,Emirates Stadium,51.50853,-0.12574,https://www.geonames.org/2643743,geonames_searchJSON,high,False,,england__london__a0c2be3a,GeoNames name_equals match; selected 'London'; admin 'England'; feature PPLC; population 8961989; 3.2 km from trusted local centroid; top-vs-next score margin 95.3; HTTP fallback was used because the GeoNames HTTPS certificate failed verification.
c_as_far_8343a091,AS FAR,AS FAR,Botola Pro,Morocco,Rabat,Prince Moulay Abdellah Stadium,34.01325,-6.83255,https://www.geonames.org/2538475,geonames_searchJSON,high,False,,morocco__rabat__0c12dbca,GeoNames name_equals match; selected 'Rabat'; admin 'Rabat-Salé-Kénitra'; feature PPLC; population 1655753; HTTP fallback was used because the GeoNames HTTPS certificate failed verification.
c_as_monaco_6b2106c8,AS Monaco,AS Monaco,Ligue 1,Monaco,Fontvieille,Stade Louis II,43.72687,7.41766,https://www.geonames.org/3017814,geonames_searchJSON,high,False,Merged aliases/source variants: AS Monaco; Monaco.,monaco__fontvieille__33b697ea,GeoNames name_equals match; selected 'Fontvieille'; feature PPLX; population 3602; 0.2 km from trusted local centroid; HTTP fallback was used because the GeoNames HTTPS certificate failed verification.
c_as_roma_2ecbf69f,AS Roma,AS Roma,Serie A,Italy,Rome,Stadio Olimpico,41.89193,12.51133,https://www.geonames.org/3169070,geonames_searchJSON,high,False,Merged aliases/source variants: AS Roma; Roma.,italy__rome__3ce952dd,GeoNames name_equals match; selected 'Rome'; admin 'Lazio'; feature PPLC; population 2318895; 6.6 km from trusted local centroid; HTTP fallback was used because the GeoNames HTTPS certificate failed verification.
c_astana_f8b0106f,Astana,Astana,Kazakhstan Premier League,Kazakhstan,Astana,Astana Arena,51.1801,71.44598,https://www.geonames.org/1526273,geonames_searchJSON,high,False,,kazakhstan__astana__3054a1f0,GeoNames name_equals match; selected 'Astana'; admin 'Астана'; feature PPLC; population 345604; 8.5 km from trusted local centroid; HTTP fallback was used because the GeoNames HTTPS certificate failed verification.
c_aston_villa_2b918477,Aston Villa F.C.,Aston Villa F.C.,Premier League,England,Birmingham,Villa Park,52.48142,-1.89983,https://www.geonames.org/2655603,geonames_searchJSON,high,False,,england__birmingham__8040049d,GeoNames name_equals match; selected 'Birmingham'; admin 'England'; feature PPLA2; population 1157603; 2.0 km from trusted local centroid; HTTP fallback was used because the GeoNames HTTPS certificate failed verification.
c_atalanta_f8d83567,Atalanta,Atalanta,Serie A,Italy,Bergamo,Stadio Atleti Azzurri d'Italia,45.69601,9.66721,https://www.geonames.org/3182164,geonames_searchJSON,high,False,,italy__bergamo__174b8828,GeoNames name_equals match; selected 'Bergamo'; admin 'Lombardia'; feature PPLA2; population 121200; 1.8 km from trusted local centroid; HTTP fallback was used because the GeoNames HTTPS certificate failed verification.
c_athletic_club_24c5af40,Athletic Bilbao,Athletic Bilbao,La Liga,Spain,Bilbao,San Mamés Stadium,43.26271,-2.92528,https://www.geonames.org/3128026,geonames_searchJSON,high,False,,spain__bilbao__1f3dc556,GeoNames name_equals match; selected 'Bilbao'; admin 'País Vasco'; feature PPLA2; population 347342; 2.0 km from trusted local centroid; top-vs-next score margin 102.6; HTTP fallback was used because the GeoNames HTTPS certificate failed verification.
c_athletico_paranaense_2178bb1a,Club Athletico Paranaense,Club Athletico Paranaense,Campeonato Brasileiro Série A,Brazil,Curitiba,Arena da Baixada,-25.42778,-49.27306,https://www.geonames.org/3464975,geonames_searchJSON,high,False,,brazil__curitiba__c7294ea8,GeoNames name_equals match; selected 'Curitiba'; admin 'Paraná'; feature PPLA; population 1948626; 2.3 km from trusted local centroid; top-vs-next score margin 102.0; HTTP fallback was used because the GeoNames HTTPS certificate failed verification.
c_atlanta_united_43563fa4,Atlanta United,Atlanta United,Major League Soccer,United States,Atlanta,Mercedes-Benz Stadium,33.749,-84.38798,https://www.geonames.org/4180439,geonames_searchJSON,high,False,,united-states__atlanta__01e9ae3c,GeoNames name_equals match; selected 'Atlanta'; admin 'Georgia'; feature PPLA; population 510823; 1.4 km from trusted local centroid; top-vs-next score margin 89.9; HTTP fallback was used because the GeoNames HTTPS certificate failed verification.
c_atlas_292eeed6,Atlas F.C.,Atlas F.C.,Liga MX,Mexico,Guadalajara,Estadio Jalisco,20.67738,-103.34749,https://www.geonames.org/4005539,geonames_searchJSON,high,False,,mexico__guadalajara__805fe4c6,GeoNames name_equals match; selected 'Guadalajara'; admin 'Jalisco'; feature PPLA; population 1385629; top-vs-next score margin 16.3; HTTP fallback was used because the GeoNames HTTPS certificate failed verification.
c_atletico_madrid_9b17a9e6,Atlético Madrid,Atletico Madrid,La Liga,Spain,Madrid,Metropolitano Stadium,40.4165,-3.70256,https://www.geonames.org/3117735,geonames_searchJSON,high,False,,spain__madrid__5681c685,GeoNames name_equals match; selected 'Madrid'; admin 'Madrid'; feature PPLC; population 3255944; 4.7 km from trusted local centroid; HTTP fallback was used because the GeoNames HTTPS certificate failed verification.
c_atletico_mineiro_a8379d4f,Atletico Mineiro,Atletico Mineiro,Campeonato Brasileiro Série A,Brazil,Belo Horizonte,Arena MRV,-19.92083,-43.93778,https://www.geonames.org/3470127,geonames_searchJSON,high,False,,brazil__belo-horizonte__17075586,GeoNames name_equals match; selected 'Belo Horizonte'; admin 'Minas Gerais'; feature PPLA; population 2721564; 8.3 km from trusted local centroid; top-vs-next score margin 102.0; HTTP fallback was used because the GeoNames HTTPS certificate failed verification.
c_atletico_nacional_4666103f,Atlético Nacional,Atletico Nacional,Liga DIMAYOR,Colombia,Medellín,Atanasio Girardot Stadium,6.245,-75.57151,https://www.geonames.org/3674962,geonames_searchJSON,high,False,,colombia__medellin__b9c2f188,GeoNames name_equals match; selected 'Medellín'; admin 'Antioquia'; feature PPLA; population 1999979; 2.4 km from trusted local centroid; top-vs-next score margin 73.0; HTTP fallback was used because the GeoNames HTTPS certificate failed verification.
c_atromitos_ea5a8225,Atromitos F.C.,Atromitos F.C.,Super League Greece,Greece,Peristeri,Peristeri Stadium,38.01539,23.69187,https://www.geonames.org/255524,geonames_searchJSON,high,False,,greece__peristeri__c0aec664,GeoNames name_equals match; selected 'Peristéri'; admin 'Αττική'; feature PPLA3; population 139981; 1.2 km from trusted local centroid; top-vs-next score margin 54.9; HTTP fallback was used because the GeoNames HTTPS certificate failed verification.
c_auckland_fc_a034ca43,Auckland FC,Auckland FC,A-League Men,New Zealand,Auckland,Mount Smart Stadium,-36.84853,174.76349,https://www.geonames.org/2193733,geonames_searchJSON,high,False,,new-zealand__auckland__aed45b02,GeoNames name_equals match; selected 'Auckland'; admin 'Auckland'; feature PPLA; population 1530500; 8.9 km from trusted local centroid; HTTP fallback was used because the GeoNames HTTPS certificate failed verification.
c_austria_vienna_84acf87e,Austria Vienna,Austria Vienna,Austrian Football Bundesliga,Austria,Vienna,Generali Arena,48.20849,16.37208,https://www.geonames.org/2761369,geonames_searchJSON,high,False,,austria__vienna__0b10dcf1,GeoNames name_equals match; selected 'Vienna'; admin 'Wien'; feature PPLC; population 1691468; 5.2 km from trusted local centroid; HTTP fallback was used because the GeoNames HTTPS certificate failed verification.
c_az_alkmaar_6ec3c79a,AZ Alkmaar,AZ Alkmaar,Eredivisie,Netherlands,Alkmaar,AFAS Stadion,52.63167,4.74861,https://www.geonames.org/2759899,geonames_searchJSON,high,False,,netherlands__alkmaar__7d0de1f0,GeoNames name_equals match; selected 'Alkmaar'; admin 'Noord-Holland'; feature PPL; population 94853; 2.2 km from trusted local centroid; HTTP fallback was used because the GeoNames HTTPS certificate failed verification.
c_baniyas_89e1539a,Baniyas,Baniyas,UAE Pro League,United Arab Emirates,Abu Dhabi,Baniyas Stadium,24.45118,54.39696,https://www.geonames.org/292968,geonames_searchJSON,high,False,,united-arab-emirates__abu-dhabi__2f0f3c6b,GeoNames name_equals match; selected 'Abu Dhabi'; admin 'أبو ظبي'; feature PPLC; population 1807000; 15.4 km from trusted local centroid; HTTP fallback was used because the GeoNames HTTPS certificate failed verification.
c_barcelona_b_ef28ece1,FC Barcelona Atlètic,FC Barcelona Atletic,Primera Federación,Spain,Sant Joan Despí,Johan Cruijff Stadium,41.36718,2.0574,https://www.geonames.org/3110519,geonames_searchJSON,high,False,Step 5 manual review canonical rename from 'Barcelona B' to 'FC Barcelona Atlètic'.,spain__sant-joan-despi__a252ff7c,GeoNames name_equals match; selected 'Sant Joan Despí'; admin 'Cataluña'; feature PPL; population 32030; 1.0 km from trusted local centroid; HTTP fallback was used because the GeoNames HTTPS certificate failed verification.
c_barcelona_cb30c55c,FC Barcelona,FC Barcelona,La Liga,Spain,Barcelona,Camp Nou,41.38879,2.15899,https://www.geonames.org/3128760,geonames_searchJSON,high,False,Step 5 manual review canonical rename from 'Barcelona' to 'FC Barcelona'.,spain__barcelona__6f0e02e0,GeoNames name_equals match; selected 'Barcelona'; admin 'Cataluña'; feature PPLA; population 1686208; 3.1 km from trusted local centroid; HTTP fallback was used because the GeoNames HTTPS certificate failed verification.
c_barnsley_4509838f,Barnsley F.C.,Barnsley F.C.,EFL League One,England,Barnsley,Oakwell,53.55,-1.48333,https://www.geonames.org/2656284,geonames_searchJSON,high,False,,england__barnsley__85b72811,GeoNames name_equals match; selected 'Barnsley'; admin 'England'; feature PPLA2; population 71447; 1.1 km from trusted local centroid; top-vs-next score margin 62.6; HTTP fallback was used because the GeoNames HTTPS certificate failed verification.
c_bastia_1e5b7984,Bastia,Bastia,Ligue 3,France,Furiani,Stade Armand Cesari,42.65847,9.41446,https://www.geonames.org/3016890,geonames_searchJSON,high,False,,france__furiani__e82bdae1,GeoNames name_equals match; selected 'Furiani'; admin 'Corse'; feature PPL; population 4337; 2.4 km from trusted local centroid; HTTP fallback was used because the GeoNames HTTPS certificate failed verification.
c_bayer_leverkusen_39ddc43b,Bayer 04 Leverkusen,Bayer 04 Leverkusen,Bundesliga,Germany,Leverkusen,BayArena,51.0303,6.98432,https://www.geonames.org/2878234,geonames_searchJSON,high,False,,germany__leverkusen__71a94962,GeoNames name_equals match; selected 'Leverkusen'; admin 'Nordrhein-Westfalen'; feature PPLA3; population 162738; 1.5 km from trusted local centroid; HTTP fallback was used because the GeoNames HTTPS certificate failed verification.
c_bayern_munich_e963c2ea,FC Bayern Munich,FC Bayern Munich,Bundesliga,Germany,Munich,Allianz Arena,48.13743,11.57549,https://www.geonames.org/2867714,geonames_searchJSON,high,False,,germany__munich__02751cf5,GeoNames name_equals match; selected 'Munich'; admin 'Bayern'; feature PPLA; population 1260391; 9.8 km from trusted local centroid; HTTP fallback was used because the GeoNames HTTPS certificate failed verification.
c_benfica_5d914960,S.L. Benfica,S.L. Benfica,Primeira Liga,Portugal,Lisbon,Estádio da Luz,38.72509,-9.1498,https://www.geonames.org/2267057,geonames_searchJSON,high,False,,portugal__lisbon__1241cb97,GeoNames name_equals match; selected 'Lisbon'; admin 'Lisboa'; feature PPLC; population 517802; 4.1 km from trusted local centroid; HTTP fallback was used because the GeoNames HTTPS certificate failed verification.
c_besiktas_daeca9ad,Beşiktaş J.K.,Besiktas JK,Süper Lig,Turkey,Beşiktaş,Beşiktaş Stadium,41.04541,29.00991,https://www.geonames.org/750733,geonames_searchJSON,high,False,,turkey__besiktas__a1e503b2,GeoNames name_equals match; selected 'Beşiktaş'; admin 'İstanbul'; feature PPL; 1.5 km from trusted local centroid; top-vs-next score margin 72.4; HTTP fallback was used because the GeoNames HTTPS certificate failed verification.
c_beveren_04c54466,SK Beveren,SK Beveren,Belgian Pro League,Belgium,Beveren,Freethiel Stadion,51.21187,4.25633,https://www.geonames.org/2802031,geonames_searchJSON,medium,False,,belgium__beveren__383d8e3f,GeoNames name_equals match; selected 'Beveren'; admin 'Vlaanderen'; feature PPL; population 45179; top-vs-next score margin 3.6; spot-check recommended before promoting to final club coordinates; HTTP fallback was used because the GeoNames HTTPS certificate failed verification. NOTE: Verified.
c_birmingham_city_b5dc6570,Birmingham City F.C.,Birmingham City F.C.,EFL Championship,England,Birmingham,St Andrew's,52.48142,-1.89983,https://www.geonames.org/2655603,geonames_searchJSON,high,False,,england__birmingham__8040049d,GeoNames name_equals match; selected 'Birmingham'; admin 'England'; feature PPLA2; population 1157603; 2.0 km from trusted local centroid; HTTP fallback was used because the GeoNames HTTPS certificate failed verification.
c_boca_juniors_6bfb0da4,Boca Juniors,Boca Juniors,Primera División de Argentina,Argentina,Buenos Aires,La Bombonera,-34.61315,-58.37723,https://www.geonames.org/3435910,geonames_searchJSON,high,False,,argentina__buenos-aires__c0c3273b,GeoNames name_equals match; selected 'Buenos Aires'; admin 'Buenos Aires C.F.'; feature PPLC; population 2891082; 6.1 km from trusted local centroid; top-vs-next score margin 104.0; HTTP fallback was used because the GeoNames HTTPS certificate failed verification.
c_bod_glimt_b9be1ed7,FK Bodø/Glimt,FK Bodø/Glimt,Eliteserien,Norway,Bodø,Aspmyra Stadion,67.28267,14.37513,https://www.geonames.org/3160881,geonames_searchJSON,high,False,,norway__bod__9d74b3b0,GeoNames name_equals match; selected 'Bodø'; admin 'Nordland'; feature PPLA; population 34073; 0.7 km from trusted local centroid; HTTP fallback was used because the GeoNames HTTPS certificate failed verification.
c_bologna_1c61a9b1,Bologna,Bologna,Serie A,Italy,Bologna,Stadio Renato Dall'Ara,44.49381,11.33875,https://www.geonames.org/3181928,geonames_searchJSON,high,False,,italy__bologna__b8c4026d,GeoNames name_equals match; selected 'Bologna'; admin 'Emilia-Romagna'; feature PPLA; population 394843; 2.3 km from trusted local centroid; top-vs-next score margin 37.0; HTTP fallback was used because the GeoNames HTTPS certificate failed verification.
c_borussia_dortmund_8a058a04,Borussia Dortmund,Borussia Dortmund,Bundesliga,Germany,Dortmund,Westfalenstadion,51.51494,7.466,https://www.geonames.org/2935517,geonames_searchJSON,high,False,,germany__dortmund__6536b234,GeoNames name_equals match; selected 'Dortmund'; admin 'Nordrhein-Westfalen'; feature PPLA3; population 588462; 2.7 km from trusted local centroid; HTTP fallback was used because the GeoNames HTTPS certificate failed verification.
c_borussia_monchengladbach_e9b82a3e,Borussia Mönchengladbach,Borussia Monchengladbach,Bundesliga,Germany,Mönchengladbach,Borussia-Park,51.18539,6.44172,https://www.geonames.org/2869894,geonames_searchJSON,high,False,Merged aliases/source variants: Borussia Mönchengladbach; Borussia Moenchengladbach.,germany__monchengladbach__5852c6d3,GeoNames name_equals match; selected 'Mönchengladbach'; admin 'Nordrhein-Westfalen'; feature PPLA3; population 261742; 4.1 km from trusted local centroid; HTTP fallback was used because the GeoNames HTTPS certificate failed verification.
c_botafogo_99e3bf74,Botafogo FR,Botafogo FR,Campeonato Brasileiro Série A,Brazil,Rio de Janeiro,Estádio Olímpico Nilton Santos,-22.90642,-43.18223,https://www.geonames.org/3451190,geonames_searchJSON,high,False,,brazil__rio-de-janeiro__461176f5,GeoNames name_equals match; selected 'Rio de Janeiro'; admin 'Rio de Janeiro'; feature PPLA; population 6747815; 6.5 km from trusted local centroid; HTTP fallback was used because the GeoNames HTTPS certificate failed verification.
c_braga_f3599df6,Braga,Braga,Liga Portugal,Portugal,Braga,Estádio Municipal de Braga,41.5514,-8.42311,https://www.geonames.org/2742032,geonames_searchJSON,low,False,,portugal__braga__af004cfd,"Manual city correction retained for Braga, Portugal."
c_braintree_town_abe87f1e,Braintree Town F.C.,Braintree Town F.C.,National League South,England,Braintree,Cressing Road,51.87819,0.55292,https://www.geonames.org/2654938,geonames_searchJSON,high,False,,england__braintree__fdb14e94,GeoNames name_equals match; selected 'Braintree'; admin 'England'; feature PPL; population 53477; 1.4 km from trusted local centroid; HTTP fallback was used because the GeoNames HTTPS certificate failed verification.
c_brentford_99ebeb82,Brentford F.C.,Brentford F.C.,Premier League,England,Brentford,Brentford Community Stadium,51.48619,-0.3083,https://www.geonames.org/2654787,geonames_searchJSON,high,False,,england__brentford__f263879f,GeoNames name_equals match; selected 'Brentford'; admin 'England'; feature PPL; population 10750; 0.4 km from trusted local centroid; top-vs-next score margin 15.1; HTTP fallback was used because the GeoNames HTTPS certificate failed verification.
c_brighton_hove_albion_5bfa8704,Brighton & Hove Albion F.C.,Brighton & Hove Albion F.C.,Premier League,England,Brighton and Hove,Falmer Stadium,50.8238,-0.13497,https://www.geonames.org/11550750,geonames_searchJSON,high,False,Merged aliases/source variants: Brighton & Hove Albion; Brighton.,england__brighton-and-hove__107da4ae,GeoNames name_equals match; selected 'Brighton and Hove'; admin 'England'; feature PPL; 5.6 km from trusted local centroid; HTTP fallback was used because the GeoNames HTTPS certificate failed verification.
c_brondby_701a4084,Brøndby IF,Brondby IF,Danish Superliga,Denmark,Brøndbyvester,Brøndby Stadium,55.6455,12.41008,https://www.geonames.org/2623340,geonames_searchJSON,high,False,,denmark__brndbyvester__96f1e139,GeoNames name_equals match; selected 'Brøndbyvester'; admin 'Region Hovedstaden'; feature PPLA2; population 20000; 0.6 km from trusted local centroid; HTTP fallback was used because the GeoNames HTTPS certificate failed verification.
c_burnley_b7c3fe1e,Burnley F.C.,Burnley F.C.,EFL Championship,England,Burnley,Turf Moor,53.8,-2.23333,https://www.geonames.org/2654264,geonames_searchJSON,high,False,,england__burnley__36c6a3b9,GeoNames name_equals match; selected 'Burnley'; admin 'England'; feature PPLA4; population 149422; 1.2 km from trusted local centroid; HTTP fallback was used because the GeoNames HTTPS certificate failed verification.
c_buxoro_ba979d39,Buxoro,Buxoro,Uzbekistan Super League,Uzbekistan,Bukhara,Buxoro Arena,39.77026,64.43069,https://www.geonames.org/1217662,geonames_searchJSON,high,False,,uzbekistan__bukhara__95b8bd46,GeoNames name_equals match; selected 'Bukhara'; admin 'Buxoro'; feature PPLA; population 280187; 0.5 km from trusted local centroid; HTTP fallback was used because the GeoNames HTTPS certificate failed verification.
c_cagliari_b9017662,Cagliari,Cagliari,Serie A,Italy,Cagliari,Unipol Domus,39.23054,9.11917,https://www.geonames.org/2525473,geonames_searchJSON,high,False,,italy__cagliari__98ddc5ef,GeoNames name_equals match; selected 'Cagliari'; admin 'Sardegna'; feature PPLA; population 149257; 3.8 km from trusted local centroid; top-vs-next score margin 96.3; HTTP fallback was used because the GeoNames HTTPS certificate failed verification.
c_casa_pia_c00111a5,Casa Pia A.C.,Casa Pia A.C.,Primeira Liga,Portugal,Lisbon,Estádio Pina Manique,38.72509,-9.1498,https://www.geonames.org/2267057,geonames_searchJSON,high,False,,portugal__lisbon__1241cb97,GeoNames name_equals match; selected 'Lisbon'; admin 'Lisboa'; feature PPLC; population 517802; 4.1 km from trusted local centroid; HTTP fallback was used because the GeoNames HTTPS certificate failed verification.
c_castellon_8eebb754,CD Castellón,CD Castellon,Segunda División,Spain,Castellón de la Plana,Nou Estadi Castàlia,39.98567,-0.04935,https://www.geonames.org/2519752,geonames_searchJSON,low,False,,spain__castellon-de-la-plana__522e60ed,GeoNames name_equals match; selected 'Castelló de la Plana'; admin 'Valencia'; feature PPLA2; population 171857; spot-check recommended before promoting to final club coordinates; HTTP fallback was used because the GeoNames HTTPS certificate failed verification. NOTE: Verified.
c_caykur_rizespor_5d094b3b,Çaykur Rizespor,Caykur Rizespor,Süper Lig,Turkey,Rize,Rize City Stadium,41.02083,40.52194,https://www.geonames.org/740483,geonames_searchJSON,high,False,Merged aliases/source variants: Caykur Rizesport; Çaykur Rizespor; Rizespor.,turkey__rize__992675d8,GeoNames name_equals match; selected 'Rize'; admin 'Rize'; feature PPLA; population 119828; 4.9 km from trusted local centroid; HTTP fallback was used because the GeoNames HTTPS certificate failed verification.
c_celta_vigo_d1c2cf8a,RC Celta de Vigo,RC Celta de Vigo,La Liga,Spain,Vigo,Balaídos Stadium,42.23282,-8.72264,https://www.geonames.org/3105976,geonames_searchJSON,high,False,,spain__vigo__c9d7b306,GeoNames name_equals match; selected 'Vigo'; admin 'Galicia'; feature PPLA3; population 293642; 2.7 km from trusted local centroid; top-vs-next score margin 53.4; HTTP fallback was used because the GeoNames HTTPS certificate failed verification.
c_celtic_a2eaecf1,Celtic F.C.,Celtic F.C.,Scottish Premiership,Scotland,Glasgow,Celtic Park,55.86515,-4.25763,https://www.geonames.org/2648579,geonames_searchJSON,high,False,,scotland__glasgow__4d9f298b,GeoNames name_equals match; selected 'Glasgow'; admin 'Scotland'; feature PPLA2; population 626410; 1.5 km from trusted local centroid; HTTP fallback was used because the GeoNames HTTPS certificate failed verification.
c_cercle_brugge_02b4f133,Cercle Brugge KSV,Cercle Brugge KSV,Belgian Pro League,Belgium,Bruges,Jan Breydel Stadium,51.20892,3.22424,https://www.geonames.org/2800931,geonames_searchJSON,low,False,Step 5 manual review canonical rename from 'Cercle Brugge' to 'Cercle Brugge KSV'.,belgium__bruges__a0f80d78,GeoNames name_equals match; selected 'Brugge'; admin 'Vlaanderen'; feature PPL; population 118509; 3.5 km from trusted local centroid; spot-check recommended before promoting to final club coordinates; HTTP fallback was used because the GeoNames HTTPS certificate failed verification. NOTE: Manually verified.
c_cerro_porteno_cf028333,Club Cerro Porteño,Club Cerro Porteno,Primera División de Paraguay,Paraguay,Asunción,Estadio General Pablo Rojas,-25.28207,-57.63539,https://www.geonames.org/3439389,geonames_searchJSON,low,False,,paraguay__asuncion__1d501407,GeoNames name_equals match; selected 'Asunción'; admin 'Asunción'; feature PPLC; population 1482200; 537.9 km from trusted local centroid; spot-check recommended before promoting to final club coordinates; HTTP fallback was used because the GeoNames HTTPS certificate failed verification. NOTE: Manually changed to current values.
c_charleroi_62356bf9,Royal Charleroi SC,Royal Charleroi SC,Belgian Pro League,Belgium,Charleroi,Stade du Pays de Charleroi,50.41136,4.44448,https://www.geonames.org/2800481,geonames_searchJSON,high,False,,belgium__charleroi__c5857956,GeoNames name_equals match; selected 'Charleroi'; admin 'Wallonië'; feature PPL; population 200132; HTTP fallback was used because the GeoNames HTTPS certificate failed verification.
c_charlotte_fc_f185ca79,Charlotte FC,Charlotte FC,Major League Soccer,United States,Charlotte,Bank of America Stadium,35.22709,-80.84313,https://www.geonames.org/4460243,geonames_searchJSON,high,False,,united-states__charlotte__ab07b447,GeoNames name_equals match; selected 'Charlotte'; admin 'North Carolina'; feature PPLA2; population 911311; 0.9 km from trusted local centroid; top-vs-next score margin 86.0; HTTP fallback was used because the GeoNames HTTPS certificate failed verification.
c_charlton_athletic_f6926677,Charlton Athletic F.C.,Charlton Athletic F.C.,EFL Championship,England,London,The Valley,51.50853,-0.12574,https://www.geonames.org/2643743,geonames_searchJSON,high,False,,england__london__a0c2be3a,GeoNames name_equals match; selected 'London'; admin 'England'; feature PPLC; population 8961989; 3.2 km from trusted local centroid; top-vs-next score margin 95.3; HTTP fallback was used because the GeoNames HTTPS certificate failed verification.
c_chaves_de187007,G.D. Chaves,G.D. Chaves,Liga Portugal 2,Portugal,Chaves,Estádio Municipal Eng. Manuel Branco Teixeira,41.74019,-7.46879,https://www.geonames.org/2740761,geonames_searchJSON,high,False,,portugal__chaves__259ceaf1,GeoNames name_equals match; selected 'Chaves'; admin 'Vila Real'; feature PPLA2; population 17535; HTTP fallback was used because the GeoNames HTTPS certificate failed verification.
c_chelsea_e655b01a,Chelsea F.C.,Chelsea F.C.,Premier League,England,London,Stamford Bridge,51.50853,-0.12574,https://www.geonames.org/2643743,geonames_searchJSON,high,False,,england__london__a0c2be3a,GeoNames name_equals match; selected 'London'; admin 'England'; feature PPLC; population 8961989; 3.2 km from trusted local centroid; top-vs-next score margin 95.3; HTTP fallback was used because the GeoNames HTTPS certificate failed verification.
c_chicago_fire_65c1a76f,Chicago Fire,Chicago Fire,Major League Soccer,United States,Chicago,Soldier Field,41.85003,-87.65005,https://www.geonames.org/4887398,geonames_searchJSON,high,False,,united-states__chicago__83183e91,GeoNames name_equals match; selected 'Chicago'; admin 'Illinois'; feature PPLA2; population 2664452; 3.1 km from trusted local centroid; top-vs-next score margin 186.0; HTTP fallback was used because the GeoNames HTTPS certificate failed verification.
c_chivas_d38ae426,Chivas,Chivas,Major League Soccer,United States,Carson,Dignity Health Sports Park,33.83141,-118.28202,https://www.geonames.org/5334519,geonames_searchJSON,high,False,,united-states__carson__785d5169,GeoNames name_equals match; selected 'Carson'; admin 'California'; feature PPL; population 93281; 4.1 km from trusted local centroid; top-vs-next score margin 84.5; HTTP fallback was used because the GeoNames HTTPS certificate failed verification.
c_club_africain_64656e78,Club Africain,Club Africain,Tunisian Ligue Professionnelle 1,Tunisia,Radès,Hammadi Agrebi Stadium,36.76946,10.27468,https://www.geonames.org/2467815,geonames_searchJSON,high,False,,tunisia__rades__3c5626c2,GeoNames name_equals match; selected 'Radès'; admin 'ولاية بن عروس'; feature PPL; population 59998; 2.4 km from trusted local centroid; HTTP fallback was used because the GeoNames HTTPS certificate failed verification.
c_club_america_49cadc66,Club América,Club America,Liga MX,Mexico,Coyoacán,Estadio Azteca,19.3467,-99.16174,https://www.geonames.org/3530139,geonames_searchJSON,high,False,Merged aliases/source variants: Club América; América.,mexico__coyoacan__d2b533fd,GeoNames name_equals match; selected 'Coyoacán'; admin 'Ciudad de México'; feature PPL; population 614447; 5.0 km from trusted local centroid; top-vs-next score margin 55.3; HTTP fallback was used because the GeoNames HTTPS certificate failed verification.
c_club_brugge_ea2adfc5,Club Brugge KV,Club Brugge KV,Belgian Pro League,Belgium,Bruges,Jan Breydel Stadium,51.20892,3.22424,https://www.geonames.org/2800931,geonames_searchJSON,low,False,Step 5 manual review canonical rename from 'Club Brugge' to 'Club Brugge KV'.,belgium__bruges__a0f80d78,GeoNames name_equals match; selected 'Brugge'; admin 'Vlaanderen'; feature PPL; population 118509; 3.5 km from trusted local centroid; spot-check recommended before promoting to final club coordinates; HTTP fallback was used because the GeoNames HTTPS certificate failed verification. NOTE: Manually verified.
c_club_tijuana_6e4baf66,Club Tijuana,Club Tijuana,Liga MX,Mexico,Tijuana,Estadio Caliente,32.5027,-117.00371,https://www.geonames.org/3981609,geonames_searchJSON,high,False,Merged aliases/source variants: Club Tijuana; Tijuana.,mexico__tijuana__1a4dc2ce,GeoNames name_equals match; selected 'Tijuana'; admin 'Baja California'; feature PPLA2; population 1922523; 1.1 km from trusted local centroid; top-vs-next score margin 98.7; HTTP fallback was used because the GeoNames HTTPS certificate failed verification.
c_cobresal_8c0fe5bd,Cobresal,Cobresal,Chilean Primera División,Chile,El Salvador,Estadio El Cobre,-26.24398,-69.62546,https://www.geonames.org/3890417,geonames_searchJSON,high,False,,chile__el-salvador__5938f3bf,GeoNames name_equals match; selected 'El Salvador'; admin 'Atacama'; feature PPLX; 0.9 km from trusted local centroid; top-vs-next score margin 77.0; HTTP fallback was used because the GeoNames HTTPS certificate failed verification.
c_colorado_rapids_da865f5e,Colorado Rapids,Colorado Rapids,Major League Soccer,United States,Commerce City,Dick's Sporting Goods Park,39.80832,-104.93387,https://www.geonames.org/5417737,geonames_searchJSON,high,False,,united-states__commerce-city__9f54411c,GeoNames name_equals match; selected 'Commerce City'; admin 'Colorado'; feature PPL; population 53696; 3.6 km from trusted local centroid; top-vs-next score margin 205.1; HTTP fallback was used because the GeoNames HTTPS certificate failed verification.
c_colorado_springs_switchbacks_a19366a9,Colorado Springs Switchbacks,Colorado Springs Switchbacks,USL Championship,United States,Colorado Springs,Switchbacks Training Stadium,38.83388,-104.82136,https://www.geonames.org/5417598,geonames_searchJSON,high,False,,united-states__colorado-springs__dc334e47,GeoNames name_equals match; selected 'Colorado Springs'; admin 'Colorado'; feature PPLA2; population 456568; 11.8 km from trusted local centroid; HTTP fallback was used because the GeoNames HTTPS certificate failed verification.
c_columbus_crew_7b68355a,Columbus Crew,Columbus Crew,Major League Soccer,United States,Columbus,ScottsMiracle-Gro Field,39.96118,-82.99879,https://www.geonames.org/4509177,geonames_searchJSON,high,False,,united-states__columbus__6f4d0b13,GeoNames name_equals match; selected 'Columbus'; admin 'Ohio'; feature PPLA; population 913175; 1.8 km from trusted local centroid; top-vs-next score margin 49.9; HTTP fallback was used because the GeoNames HTTPS certificate failed verification.
c_como_e0ef6211,Como,Como,Serie A,Italy,Como,Stadio Giuseppe Sinigaglia,45.80819,9.0832,https://www.geonames.org/3178229,geonames_searchJSON,high,False,,italy__como__9f65abc5,GeoNames name_equals match; selected 'Como'; admin 'Lombardia'; feature PPLA2; population 84808; 1.0 km from trusted local centroid; HTTP fallback was used because the GeoNames HTTPS certificate failed verification.
c_copenhagen_7e10c652,F.C. Copenhagen,F.C. Copenhagen,Danish Superliga,Denmark,Copenhagen,Parken Stadium,55.67594,12.56553,https://www.geonames.org/2618425,geonames_searchJSON,high,False,Merged aliases/source variants: Copenhagen; Kobenhavn.,denmark__copenhagen__1f815217,GeoNames name_equals match; selected 'Copenhagen'; admin 'Region Hovedstaden'; feature PPLC; population 1153615; HTTP fallback was used because the GeoNames HTTPS certificate failed verification.
c_corinthians_276924f3,SC Corinthians Paulista,SC Corinthians Paulista,Campeonato Brasileiro Série A,Brazil,São Paulo,Arena Corinthians,-23.5475,-46.63611,https://www.geonames.org/3448439,geonames_searchJSON,high,False,,brazil__sao-paulo__030406e0,GeoNames name_equals match; selected 'São Paulo'; admin 'São Paulo'; feature PPLA; population 12400232; 6.2 km from trusted local centroid; top-vs-next score margin 102.0; HTTP fallback was used because the GeoNames HTTPS certificate failed verification.
c_cosmos_koblenz_125995a0,FC Cosmos Koblenz,FC Cosmos Koblenz,Oberliga Rheinland-Pfalz/Saar,Germany,Koblenz,Stadion Oberwerth,50.35357,7.57883,https://www.geonames.org/2886946,geonames_searchJSON,medium,False,,germany__koblenz__0845f804,GeoNames name_equals match; selected 'Koblenz'; admin 'Rheinland-Pfalz'; feature PPLA3; population 107319; top-vs-next score margin 12.6; spot-check recommended before promoting to final club coordinates; HTTP fallback was used because the GeoNames HTTPS certificate failed verification. NOTE: Verified.
c_coventry_city_4bce22e1,Coventry City F.C.,Coventry City F.C.,Premier League,England,Coventry,Coventry Building Society Arena,52.40656,-1.51217,https://www.geonames.org/2652221,geonames_searchJSON,high,False,,england__coventry__23aace2f,GeoNames name_equals match; selected 'Coventry'; admin 'England'; feature PPLA2; population 345324; 4.7 km from trusted local centroid; HTTP fallback was used because the GeoNames HTTPS certificate failed verification.
c_cracovia_5bed2b4b,KS Cracovia,KS Cracovia,Ekstraklasa,Poland,Kraków,Józef Piłsudski Cracovia Stadium,50.06143,19.93658,https://www.geonames.org/3094802,geonames_searchJSON,high,False,,poland__krakow__d9bf2008,GeoNames name_equals match; selected 'Kraków'; admin 'Województwo małopolskie'; feature PPLA; population 804237; 1.3 km from trusted local centroid; top-vs-next score margin 66.7; HTTP fallback was used because the GeoNames HTTPS certificate failed verification.
c_cremonese_7c9dcb3d,Cremonese,Cremonese,Serie A,Italy,Cremona,Stadio Giovanni Zini,45.13325,10.02129,https://www.geonames.org/3177838,geonames_searchJSON,high,False,,italy__cremona__ac86e9b9,GeoNames name_equals match; selected 'Cremona'; admin 'Lombardia'; feature PPLA2; population 71223; 1.3 km from trusted local centroid; HTTP fallback was used because the GeoNames HTTPS certificate failed verification.
c_cruz_azul_71a31d4c,Cruz Azul,Cruz Azul,Liga MX,Mexico,Mexico City,Estadio Azteca,19.42847,-99.12766,https://www.geonames.org/3530597,geonames_searchJSON,high,False,,mexico__mexico-city__c5288fab,GeoNames name_equals match; selected 'Mexico City'; admin 'Ciudad de México'; feature PPLC; population 12294193; 14.2 km from trusted local centroid; HTTP fallback was used because the GeoNames HTTPS certificate failed verification.
c_crystal_palace_cd11ce68,Crystal Palace F.C.,Crystal Palace F.C.,Premier League,England,London,Selhurst Park,51.50853,-0.12574,https://www.geonames.org/2643743,geonames_searchJSON,high,False,,england__london__a0c2be3a,GeoNames name_equals match; selected 'London'; admin 'England'; feature PPLC; population 8961989; 3.2 km from trusted local centroid; top-vs-next score margin 95.3; HTTP fallback was used because the GeoNames HTTPS certificate failed verification.
c_cs_sfaxien_1128368b,CS Sfaxien,CS Sfaxien,Tunisian Ligue Professionnelle 1,Tunisia,Sfax,Taieb Mhiri Stadium,34.74056,10.76028,https://www.geonames.org/2467454,geonames_searchJSON,high,False,,tunisia__sfax__31b39e38,GeoNames name_equals match; selected 'Sfax'; admin 'صفاقس'; feature PPLA; population 280566; 1.5 km from trusted local centroid; HTTP fallback was used because the GeoNames HTTPS certificate failed verification.
c_cultural_leonesa_4479aa29,Cultural y Deportiva Leonesa,Cultural y Deportiva Leonesa,Primera Federación,Spain,León,Estadio Reino de León,42.60003,-5.57032,https://www.geonames.org/3118532,geonames_searchJSON,high,False,,spain__leon__acdef6d5,GeoNames name_equals match; selected 'León'; admin 'Castilla y León'; feature PPLA2; population 124772; 1.5 km from trusted local centroid; top-vs-next score margin 56.9; HTTP fallback was used because the GeoNames HTTPS certificate failed verification.
c_daejeon_hana_0cece60d,Daejeon Hana,Daejeon Hana,K League 1,South Korea,Daejeon,Daejeon World Cup Stadium,36.34913,127.38493,https://www.geonames.org/1835235,geonames_searchJSON,high,False,,south-korea__daejeon__f43e0133,GeoNames name_equals match; selected 'Daejeon'; admin '대전광역시'; feature PPLA; population 1470336; 5.7 km from trusted local centroid; top-vs-next score margin 57.0; HTTP fallback was used because the GeoNames HTTPS certificate failed verification.
c_den_bosch_bb7ad83e,FC Den Bosch,FC Den Bosch,Eerste Divisie,Netherlands,Den Bosch,De Vliert,51.69917,5.30417,https://www.geonames.org/2747351,geonames_searchJSON,high,False,,netherlands__den-bosch__f1a180a7,GeoNames name_equals match; selected ''s-Hertogenbosch'; admin 'Noord-Brabant'; feature PPLA; population 160783; HTTP fallback was used because the GeoNames HTTPS certificate failed verification.
c_deportivo_la_guaira_c9679b6f,Deportivo La Guaira,Deportivo La Guaira,Venezuelan Primera División,Venezuela,Caracas,Estadio Olímpico,10.48801,-66.87919,https://www.geonames.org/3646738,geonames_searchJSON,high,False,,venezuela__caracas__7dc4cafb,GeoNames name_equals match; selected 'Caracas'; admin 'Distrito Federal'; feature PPLC; population 3000000; 0.8 km from trusted local centroid; top-vs-next score margin 104.0; HTTP fallback was used because the GeoNames HTTPS certificate failed verification.
c_derby_county_900d9adb,Derby County F.C.,Derby County F.C.,EFL Championship,England,Derby,Pride Park Stadium,52.92277,-1.47663,https://www.geonames.org/2651347,geonames_searchJSON,high,False,,england__derby__1821f949,GeoNames name_equals match; selected 'Derby'; admin 'England'; feature PPLA2; population 270468; 2.2 km from trusted local centroid; top-vs-next score margin 67.3; HTTP fallback was used because the GeoNames HTTPS certificate failed verification.
c_dibba_al_fujairah_06c16d12,Dibba FC,Dibba FC,UAE Pro League,United Arab Emirates,Fujairah,Fujairah Club Stadium,25.11641,56.34141,https://www.geonames.org/292878,geonames_searchJSON,low,False,Step 5 manual correction: Mohanad Ali reassigned from source-listed Al-Shorta to Dibba FC; previous source variant was Dibba Al Fujairah. Step 5 manual review canonical rename from 'Dibba Al Fujairah' to 'Dibba FC'.,united-arab-emirates__fujairah__3749f5e4,"Manual city correction retained for Fujairah, United Arab Emirates."
c_dinamo_samarqand_94368156,Dinamo Samarqand,Dinamo Samarqand,Uzbekistan Super League,Uzbekistan,Samarkand,Dynamo Samarkand Stadium,39.65456,66.96445,https://www.geonames.org/1216265,geonames_searchJSON,high,False,,uzbekistan__samarkand__018a3c3d,GeoNames name_equals match; selected 'Samarkand'; admin 'Samarqand viloyati'; feature PPLA; population 595200; 1.9 km from trusted local centroid; top-vs-next score margin 66.3; HTTP fallback was used because the GeoNames HTTPS certificate failed verification.
c_dinamo_zagreb_d86806ac,Dinamo Zagreb,Dinamo Zagreb,Croatian Football League,Croatia,Maksimir,Stadion Maksimir,45.81872,16.01328,https://www.geonames.org/3195879,geonames_searchJSON,high,False,,croatia__maksimir__c03d5bcd,GeoNames name_equals match; selected 'Maksimir'; admin 'Zagreb'; feature PPLX; 0.4 km from trusted local centroid; HTTP fallback was used because the GeoNames HTTPS certificate failed verification.
c_dynamo_makhachkala_9cc503d9,FC Dynamo Makhachkala,FC Dynamo Makhachkala,Russian Premier League,Russia,Kaspiysk,Anzhi Arena,42.88165,47.63919,https://www.geonames.org/551847,geonames_searchJSON,high,False,,russia__kaspiysk__ab26c8e9,GeoNames name_equals match; selected 'Kaspiysk'; admin 'Дагестан'; feature PPL; population 81752; HTTP fallback was used because the GeoNames HTTPS certificate failed verification.
c_dynamo_moscow_28a6f575,FC Dynamo Moscow,FC Dynamo Moscow,Russian Premier League,Russia,Moscow,VTB Arena,55.75204,37.61781,https://www.geonames.org/524901,geonames_searchJSON,high,False,Merged aliases/source variants: Dynamo Moscow; Dinamo Moscow.,russia__moscow__d2e4137f,GeoNames name_equals match; selected 'Moscow'; admin 'Москва'; feature PPLC; population 10381222; 6.7 km from trusted local centroid; HTTP fallback was used because the GeoNames HTTPS certificate failed verification.
c_eintracht_braunschweig_c967ead8,Eintracht Braunschweig,Eintracht Braunschweig,2. Bundesliga,Germany,Braunschweig,Eintracht-Stadion,52.26594,10.52673,https://www.geonames.org/2945024,geonames_searchJSON,high,False,,germany__braunschweig__ebe0a605,GeoNames name_equals match; selected 'Braunschweig'; admin 'Niedersachsen'; feature PPLA3; population 244715; 2.7 km from trusted local centroid; HTTP fallback was used because the GeoNames HTTPS certificate failed verification.
c_eintracht_frankfurt_52e79065,Eintracht Frankfurt,Eintracht Frankfurt,Bundesliga,Germany,Frankfurt am Main,Waldstadion,50.11552,8.68417,https://www.geonames.org/2925533,geonames_searchJSON,high,False,,germany__frankfurt-am-main__4d46ffc0,"GeoNames exact match retained for Frankfurt am Main, Germany. Canonical city label updated from Frankfurt to Frankfurt am Main."
c_el_gouna_d2a63f6b,El Gouna,El Gouna,Egyptian Premier League,Egypt,El Gouna,Khaled Bichara Stadium,27.39417,33.67825,https://www.geonames.org/6692512,geonames_searchJSON,high,False,,egypt__el-gouna__32d8fd92,GeoNames name_equals match; selected 'El Gouna'; admin 'محافظة البحر الأحمر'; feature PPL; population 15000; 4.2 km from trusted local centroid; HTTP fallback was used because the GeoNames HTTPS certificate failed verification.
c_el_paso_locomotive_18790af8,El Paso Locomotive,El Paso Locomotive,USL Championship,United States,El Paso,New El Paso Ballpark,31.75872,-106.48693,https://www.geonames.org/5520993,geonames_searchJSON,high,False,,united-states__el-paso__c6171260,GeoNames name_equals match; selected 'El Paso'; admin 'Texas'; feature PPLA2; population 678815; 0.6 km from trusted local centroid; top-vs-next score margin 90.2; HTTP fallback was used because the GeoNames HTTPS certificate failed verification.
c_elche_e757517b,Elche,Elche,La Liga,Spain,Elche,Estadio Manuel Martínez Valero,38.26218,-0.70107,https://www.geonames.org/2518559,geonames_searchJSON,high,False,,spain__elche__a6d6c887,GeoNames name_equals match; selected 'Elche'; admin 'Valencia'; feature PPLA3; population 234765; 3.3 km from trusted local centroid; HTTP fallback was used because the GeoNames HTTPS certificate failed verification.
c_elfsborg_d22fb04b,IF Elfsborg,IF Elfsborg,Allsvenskan,Sweden,Borås,Borås Arena,57.72101,12.9401,https://www.geonames.org/2720501,geonames_searchJSON,high,False,,sweden__boras__7ef6cb59,GeoNames name_equals match; selected 'Borås'; admin 'Västra Götalands län'; feature PPLA2; population 71700; 1.5 km from trusted local centroid; HTTP fallback was used because the GeoNames HTTPS certificate failed verification.
c_espanyol_b65db3d8,RCD Espanyol,RCD Espanyol,La Liga,Spain,Cornellà de Llobregat,RCDE Stadium,41.35,2.08333,https://www.geonames.org/3124569,geonames_searchJSON,high,False,,spain__cornella-de-llobregat__dc36b862,GeoNames name_equals match; selected 'Cornellà de Llobregat'; admin 'Cataluña'; feature PPL; population 87173; 13.8 km from trusted local centroid; HTTP fallback was used because the GeoNames HTTPS certificate failed verification.
c_esperance_de_tunis_bd3a1ae1,Espérance de Tunis,Esperance de Tunis,Tunisian Ligue Professionnelle 1,Tunisia,Radès,Hammadi Agrebi Stadium,36.76946,10.27468,https://www.geonames.org/2467815,geonames_searchJSON,high,False,Merged aliases/source variants: Espérance de Tunis; Esperance.,tunisia__rades__3c5626c2,GeoNames name_equals match; selected 'Radès'; admin 'ولاية بن عروس'; feature PPL; population 59998; 2.4 km from trusted local centroid; HTTP fallback was used because the GeoNames HTTPS certificate failed verification.
c_esteghlal_e23c4940,Esteghlal F.C.,Esteghlal F.C.,Persian Gulf Pro League,Iran,Tehran,Azadi Stadium,35.69439,51.42151,https://www.geonames.org/112931,geonames_searchJSON,high,False,,iran__tehran__dbef9c9d,GeoNames name_equals match; selected 'Tehran'; admin 'استان تهران'; feature PPLC; population 7153309; 13.6 km from trusted local centroid; top-vs-next score margin 27.0; HTTP fallback was used because the GeoNames HTTPS certificate failed verification.
c_estrela_amadora_ff8429b2,Estrela Amadora,Estrela Amadora,Liga Portugal,Portugal,Amadora,Estádio José Gomes,38.75382,-9.23083,https://www.geonames.org/2271772,geonames_searchJSON,high,False,,portugal__amadora__57d8ae2e,GeoNames name_equals match; selected 'Amadora'; admin 'Lisboa'; feature PPL; population 178858; 0.3 km from trusted local centroid; top-vs-next score margin 180.8; HTTP fallback was used because the GeoNames HTTPS certificate failed verification.
c_estudiantes_de_la_plata_9139330d,Club Estudiantes de La Plata,Club Estudiantes de La Plata,Primera División de Argentina,Argentina,La Plata,Estadio Jorge Luis Hirschi,-34.92126,-57.95442,https://www.geonames.org/3432043,geonames_searchJSON,high,False,,argentina__la-plata__278b9175,GeoNames name_equals match; selected 'La Plata'; admin 'Buenos Aires'; feature PPLA; population 195443; 1.8 km from trusted local centroid; HTTP fallback was used because the GeoNames HTTPS certificate failed verification.
c_etoile_du_sahel_57c67bcf,Étoile Sportive du Sahel,Etoile Sportive du Sahel,Tunisian Ligue Professionnelle 1,Tunisia,Sousse,Stade Olympique de Sousse,35.82539,10.63699,https://www.geonames.org/2464915,geonames_searchJSON,high,False,,tunisia__sousse__9de4ccc9,GeoNames name_equals match; selected 'Sousse'; admin 'سوسة'; feature PPLA; population 221715; 2.2 km from trusted local centroid; HTTP fallback was used because the GeoNames HTTPS certificate failed verification.
c_everton_fd9ce394,Everton F.C.,Everton F.C.,Premier League,England,Liverpool,Hill Dickinson Stadium,53.41058,-2.97794,https://www.geonames.org/2644210,geonames_searchJSON,high,False,,england__liverpool__99112030,GeoNames name_equals match; selected 'Liverpool'; admin 'England'; feature PPLA2; population 496770; 1.9 km from trusted local centroid; HTTP fallback was used because the GeoNames HTTPS certificate failed verification.
c_farense_d90822fe,Farense,Farense,Liga Portugal 2,Portugal,Faro,Estádio Algarve,37.01869,-7.92716,https://www.geonames.org/2268339,geonames_searchJSON,high,False,,portugal__faro__b1a732e6,GeoNames name_equals match; selected 'Faro'; admin 'Faro'; feature PPLA; population 70347; 8.8 km from trusted local centroid; HTTP fallback was used because the GeoNames HTTPS certificate failed verification.
c_fc_augsburg_ae582369,FC Augsburg,FC Augsburg,Bundesliga,Germany,Augsburg,WWK Arena,48.37154,10.89851,https://www.geonames.org/2954172,geonames_searchJSON,high,False,Merged aliases/source variants: FC Augsburg; Augsburg.,germany__augsburg__de47f247,GeoNames name_equals match; selected 'Augsburg'; admin 'Bayern'; feature PPLA2; population 259196; 5.4 km from trusted local centroid; top-vs-next score margin 99.2; HTTP fallback was used because the GeoNames HTTPS certificate failed verification.
c_fc_cincinnati_d3ccf1dd,FC Cincinnati,FC Cincinnati,Major League Soccer,United States,Cincinnati,TQL Stadium,39.12711,-84.51439,https://www.geonames.org/4508722,geonames_searchJSON,high,False,,united-states__cincinnati__146369ca,GeoNames name_equals match; selected 'Cincinnati'; admin 'Ohio'; feature PPLA2; population 311097; 1.9 km from trusted local centroid; top-vs-next score margin 64.5; HTTP fallback was used because the GeoNames HTTPS certificate failed verification.
c_fc_dallas_00dc1812,FC Dallas,FC Dallas,Major League Soccer,United States,Frisco,Toyota Stadium,33.15067,-96.82361,https://www.geonames.org/4692559,geonames_searchJSON,low,False,,united-states__frisco__4bfbb68c,"Manual city correction retained for Frisco, Texas, United States."
c_fc_midtjylland_2f4e39b9,FC Midtjylland,FC Midtjylland,Danish Superliga,Denmark,Herning,MCH Arena,56.13615,8.97662,https://www.geonames.org/2620425,geonames_searchJSON,high,False,Merged aliases/source variants: FC Midtjylland; Midtjylland.,denmark__herning__3dfaa460,GeoNames name_equals match; selected 'Herning'; admin 'Region Midtjylland'; feature PPLA2; population 50565; 2.7 km from trusted local centroid; HTTP fallback was used because the GeoNames HTTPS certificate failed verification.
c_fc_noah_5f5fceba,FC Noah,FC Noah,Armenian Premier League,Armenia,Yerevan,Mika Stadium,40.17765,44.5126,https://www.geonames.org/616052,geonames_searchJSON,high,False,,armenia__yerevan__cc3107b7,GeoNames name_equals match; selected 'Yerevan'; admin 'Քաղաք Երէվան'; feature PPLC; population 1144700; 4.4 km from trusted local centroid; HTTP fallback was used because the GeoNames HTTPS certificate failed verification.
c_fc_nordsjlland_ae9978cb,FC Nordsjælland,FC Nordsjaelland,Danish Superliga,Denmark,Farum,Right to Dream Park,55.80858,12.36066,https://www.geonames.org/2622306,geonames_searchJSON,high,False,,denmark__farum__0840ef46,GeoNames name_equals match; selected 'Farum'; admin 'Region Hovedstaden'; feature PPLA2; population 20312; 0.9 km from trusted local centroid; HTTP fallback was used because the GeoNames HTTPS certificate failed verification.
c_fc_seoul_8e133359,FC Seoul,FC Seoul,K League 1,South Korea,Seoul,Seoul World Cup Stadium,37.566,126.9784,https://www.geonames.org/1835848,geonames_searchJSON,high,False,,south-korea__seoul__7188f517,"FC Seoul official site lists Seoul World Cup Stadium in Seoul as the home venue; city coordinates updated to Seoul, South Korea."
c_fc_tatran_presov_05bcf723,FC Tatran Prešov,FC Tatran Presov,Slovak First Football League,Slovakia,Prešov,Futbal Tatran Arena,48.99923,21.2355,https://www.geonames.org/723819,geonames_searchJSON,high,False,,slovakia__presov__981a5ee2,GeoNames name_equals match; selected 'Prešov'; admin 'Prešovský'; feature PPLA; population 82927; 0.8 km from trusted local centroid; HTTP fallback was used because the GeoNames HTTPS certificate failed verification.
c_fc_tokyo_9926cea2,FC Tokyo,FC Tokyo,J1 League,Japan,Chōfu,Ajinomoto Stadium,35.65924,139.54837,https://www.geonames.org/1864518,geonames_searchJSON,high,False,,japan__chofu__e754d8dd,GeoNames name_equals match; selected 'Chōfu'; admin '東京都'; feature PPLA2; population 242614; 2.0 km from trusted local centroid; top-vs-next score margin 184.2; HTTP fallback was used because the GeoNames HTTPS certificate failed verification.
c_fc_twente_dfc20881,FC Twente,FC Twente,Eredivisie,Netherlands,Enschede,De Grolsch Veste,52.21833,6.89583,https://www.geonames.org/2756071,geonames_searchJSON,high,False,,netherlands__enschede__463c3b9b,GeoNames name_equals match; selected 'Enschede'; admin 'Overijssel'; feature PPL; population 153655; 4.5 km from trusted local centroid; HTTP fallback was used because the GeoNames HTTPS certificate failed verification.
c_fc_utrecht_8e99a4a6,FC Utrecht,FC Utrecht,Eredivisie,Netherlands,Utrecht,Stadion Galgenwaard,52.09083,5.12222,https://www.geonames.org/2745912,geonames_searchJSON,high,False,,netherlands__utrecht__9da54053,GeoNames name_equals match; selected 'Utrecht'; admin 'Utrecht'; feature PPLA; population 376435; 2.1 km from trusted local centroid; HTTP fallback was used because the GeoNames HTTPS certificate failed verification.
c_fcsb_dbba85ac,FCSB,FCSB,Liga I,Romania,Bucharest,Arena Națională,44.43225,26.10626,https://www.geonames.org/683506,geonames_searchJSON,high,False,,romania__bucharest__2749977c,GeoNames name_equals match; selected 'Bucharest'; admin 'București'; feature PPLC; population 1877155; 3.7 km from trusted local centroid; HTTP fallback was used because the GeoNames HTTPS certificate failed verification.
c_fcv_dender_decd464d,FCV Dender,FCV Dender,Belgian Pro League,Belgium,Denderleeuw,Florent Beeckmanstadion,50.88506,4.07601,https://www.geonames.org/2799647,geonames_searchJSON,high,False,Merged aliases/source variants: FCV Dender; Dender.,belgium__denderleeuw__2661c298,GeoNames name_equals match; selected 'Denderleeuw'; admin 'Vlaanderen'; feature PPL; population 16969; 0.4 km from trusted local centroid; HTTP fallback was used because the GeoNames HTTPS certificate failed verification.
c_fenerbahce_58b3ec74,Fenerbahçe S.K.,Fenerbahce S.K.,Süper Lig,Turkey,Kadıköy,Şükrü Saracoğlu Stadium,40.97882,29.08268,https://www.geonames.org/744906,geonames_searchJSON,medium,False,,turkey__kadkoy__1aadf114,GeoNames name_equals match; selected 'Kadıköy'; admin 'İstanbul'; feature PPL; 4.0 km from trusted local centroid; top-vs-next score margin 9.7; spot-check recommended before promoting to final club coordinates; HTTP fallback was used because the GeoNames HTTPS certificate failed verification. NOTE: Verified.
c_ferencvaros_b07d0cdc,Ferencvárosi TC,Ferencvarosi TC,Nemzeti Bajnokság I,Hungary,Budapest,Ferencváros Stadion,47.49835,19.04045,https://www.geonames.org/3054643,geonames_searchJSON,high,False,,hungary__budapest__7a50af4f,GeoNames name_equals match; selected 'Budapest'; admin 'Budapest'; feature PPLC; population 1741041; 4.9 km from trusted local centroid; HTTP fallback was used because the GeoNames HTTPS certificate failed verification.
c_feyenoord_c7797bfb,Feyenoord,Feyenoord,Eredivisie,Netherlands,Rotterdam,De Kuip,51.9225,4.47917,https://www.geonames.org/2747891,geonames_searchJSON,high,False,Merged aliases/source variants: Feyenoord; Feyenoord Rotterdam.,netherlands__rotterdam__aef1773f,GeoNames name_equals match; selected 'Rotterdam'; admin 'Zuid-Holland'; feature PPL; population 868135; 1.8 km from trusted local centroid; HTTP fallback was used because the GeoNames HTTPS certificate failed verification.
c_fiorentina_69ff41f4,ACF Fiorentina,ACF Fiorentina,Serie A,Italy,Florence,Stadio Artemio Franchi,43.77925,11.24626,https://www.geonames.org/3176959,geonames_searchJSON,high,False,,italy__florence__4b309cb8,GeoNames name_equals match; selected 'Florence'; admin 'Toscana'; feature PPLA; population 367150; 2.9 km from trusted local centroid; HTTP fallback was used because the GeoNames HTTPS certificate failed verification.
c_flamengo_503b2587,CR Flamengo,CR Flamengo,Campeonato Brasileiro Série A,Brazil,Rio de Janeiro,Maracanã Stadium,-22.90642,-43.18223,https://www.geonames.org/3451190,geonames_searchJSON,high,False,,brazil__rio-de-janeiro__461176f5,GeoNames name_equals match; selected 'Rio de Janeiro'; admin 'Rio de Janeiro'; feature PPLA; population 6747815; 6.5 km from trusted local centroid; HTTP fallback was used because the GeoNames HTTPS certificate failed verification.
c_fluminense_86723454,Fluminense FC,Fluminense FC,Campeonato Brasileiro Série A,Brazil,Rio de Janeiro,Maracanã Stadium,-22.90642,-43.18223,https://www.geonames.org/3451190,geonames_searchJSON,high,False,,brazil__rio-de-janeiro__461176f5,GeoNames name_equals match; selected 'Rio de Janeiro'; admin 'Rio de Janeiro'; feature PPLA; population 6747815; 6.5 km from trusted local centroid; HTTP fallback was used because the GeoNames HTTPS certificate failed verification.
c_foolad_1a4bede8,Foolad F.C.,Foolad F.C.,Persian Gulf Pro League,Iran,Ahvaz,Foolad Arena,31.31901,48.6842,https://www.geonames.org/144448,geonames_searchJSON,high,False,,iran__ahvaz__0e383019,GeoNames name_equals match; selected 'Ahvaz'; admin 'خوزستان'; feature PPLA; population 841145; 1.4 km from trusted local centroid; top-vs-next score margin 221.8; HTTP fallback was used because the GeoNames HTTPS certificate failed verification.
c_fortuna_dusseldorf_78ca4c52,Fortuna Düsseldorf,Fortuna Dusseldorf,3. Liga,Germany,Düsseldorf,Merkur Spiel-Arena,51.22172,6.77616,https://www.geonames.org/2934246,geonames_searchJSON,high,False,,germany__dusseldorf__b1a848f9,GeoNames name_equals match; selected 'Düsseldorf'; admin 'Nordrhein-Westfalen'; feature PPLA; population 620523; 5.3 km from trusted local centroid; HTTP fallback was used because the GeoNames HTTPS certificate failed verification.
c_frosinone_ffb745d6,Frosinone,Frosinone,Serie B,Italy,Frosinone,Benito Stirpe Stadium,41.63976,13.34109,https://www.geonames.org/3176515,geonames_searchJSON,high,False,,italy__frosinone__2f90915e,GeoNames name_equals match; selected 'Frosinone'; admin 'Lazio'; feature PPLA2; population 44505; 1.7 km from trusted local centroid; HTTP fallback was used because the GeoNames HTTPS certificate failed verification.
c_fulham_385c468e,Fulham F.C.,Fulham F.C.,Premier League,England,London,Craven Cottage,51.50853,-0.12574,https://www.geonames.org/2643743,geonames_searchJSON,high,False,,england__london__a0c2be3a,GeoNames name_equals match; selected 'London'; admin 'England'; feature PPLC; population 8961989; 3.2 km from trusted local centroid; top-vs-next score margin 95.3; HTTP fallback was used because the GeoNames HTTPS certificate failed verification.
c_galatasaray_8f5e15dc,Galatasaray S.K.,Galatasaray S.K.,Süper Lig,Turkey,Sarıyer,Rams Park,41.16667,29.05,https://www.geonames.org/740006,geonames_searchJSON,high,False,,turkey__saryer__02dee218,GeoNames name_equals match; selected 'Sarıyer'; admin 'İstanbul'; feature PPL; 8.6 km from trusted local centroid; top-vs-next score margin 45.0; HTTP fallback was used because the GeoNames HTTPS certificate failed verification.
c_gangwon_fc_a8495ff5,Gangwon FC,Gangwon FC,K League 1,South Korea,Gangneung,Gangneung Stadium,37.75266,128.87239,https://www.geonames.org/1843137,geonames_searchJSON,high,False,,south-korea__gangneung__25ff1be0,GeoNames name_equals match; selected 'Gangneung'; admin '강원도'; feature PPLA3; population 208161; 3.2 km from trusted local centroid; HTTP fallback was used because the GeoNames HTTPS certificate failed verification.
c_gaziantep_36de22a4,Gaziantep F.K.,Gaziantep F.K.,Süper Lig,Turkey,Gaziantep,Gaziantep Stadium,37.05944,37.3825,https://www.geonames.org/314830,geonames_searchJSON,high,False,league corrected from erroneous 'dissolution' to Süper Lig on 2026-07-13; the dissolution note belonged to Mazatlán F.C. (see club_triage_manual_checks.md),turkey__gaziantep__147a5f50,GeoNames name_equals match; selected 'Gaziantep'; admin 'Gaziantep'; feature PPLA; population 2130432; 1.0 km from trusted local centroid; HTTP fallback was used because the GeoNames HTTPS certificate failed verification.
c_genclerbirligi_22e3fae3,Gençlerbirliği S.K.,Genclerbirligi S.K.,Süper Lig,Turkey,Etimesgut,Eryaman Stadium,39.95328,32.63285,https://www.geonames.org/315155,geonames_searchJSON,high,False,,turkey__etimesgut__5c072100,GeoNames name_equals match; selected 'Etimesgut'; admin 'Ankara'; feature PPLA2; 3.4 km from trusted local centroid; HTTP fallback was used because the GeoNames HTTPS certificate failed verification.
c_genk_8993c379,KRC Genk,KRC Genk,Belgian Pro League,Belgium,Genk,Cegeka Arena,50.965,5.50082,https://www.geonames.org/2797670,geonames_searchJSON,high,False,,belgium__genk__27fe367c,GeoNames name_equals match; selected 'Genk'; admin 'Vlaanderen'; feature PPL; population 63666; 5.0 km from trusted local centroid; HTTP fallback was used because the GeoNames HTTPS certificate failed verification.
c_genoa_8456931a,Genoa,Genoa,Serie A,Italy,Genoa,Stadio Luigi Ferraris,44.40478,8.94439,https://www.geonames.org/3176219,geonames_searchJSON,high,False,,italy__genoa__7ed42ab8,GeoNames name_equals match; selected 'Genoa'; admin 'Liguria'; feature PPLA; population 580097; 1.4 km from trusted local centroid; HTTP fallback was used because the GeoNames HTTPS certificate failed verification.
c_gent_2f000c7f,Gent,Gent,Belgian Pro League,Belgium,Ghent,Jules Ottenstadion,51.05,3.71667,https://www.geonames.org/2797656,geonames_searchJSON,low,False,,belgium__ghent__71d06c23,GeoNames name_equals match; selected 'Gent'; admin 'Vlaanderen'; feature PPL; population 265086; 4.0 km from trusted local centroid; spot-check recommended before promoting to final club coordinates; HTTP fallback was used because the GeoNames HTTPS certificate failed verification. NOTE: Verified.
c_gil_vicente_4e74984b,Gil Vicente,Gil Vicente,Liga Portugal,Portugal,Barcelos,Estádio Cidade de Barcelos,41.53174,-8.61843,https://www.geonames.org/2742416,geonames_searchJSON,low,False,,portugal__barcelos__6fe0860a,"Manual city correction retained for Barcelos, Portugal."
c_girona_2b73c591,Girona,Girona,La Liga,Spain,Girona,Montilivi Stadium,41.98311,2.82493,https://www.geonames.org/3121456,geonames_searchJSON,high,False,,spain__girona__99fcaed7,GeoNames name_equals match; selected 'Girona'; admin 'Cataluña'; feature PPLA2; population 100266; 2.4 km from trusted local centroid; HTTP fallback was used because the GeoNames HTTPS certificate failed verification.
c_granada_4af55cd4,Granada CF,Granada CF,Segunda División,Spain,Granada,Nuevo Estadio de Los Cármenes,37.18817,-3.60667,https://www.geonames.org/2517117,geonames_searchJSON,high,False,,spain__granada__a2fd077f,GeoNames name_equals match; selected 'Granada'; admin 'Andalucía'; feature PPLA2; population 233532; HTTP fallback was used because the GeoNames HTTPS certificate failed verification.
c_grazer_ak_845301c1,Grazer AK,Grazer AK,Austrian Football Bundesliga,Austria,Graz,Liebenauer Stadium,47.06733,15.44197,https://www.geonames.org/2778067,geonames_searchJSON,high,False,,austria__liebenau__2347f39f,GeoNames name_equals match; selected 'Liebenau'; admin 'Steiermark'; feature PPLX; population 14447; 1.7 km from trusted local centroid; top-vs-next score margin 46.6; HTTP fallback was used because the GeoNames HTTPS certificate failed verification.
c_gremio_c49f51d7,Grêmio FBPA,Gremio FBPA,Campeonato Brasileiro Série A,Brazil,Porto Alegre,Arena do Grêmio,-30.03283,-51.23019,https://www.geonames.org/3452925,geonames_searchJSON,high,False,,brazil__porto-alegre__1598d89e,GeoNames name_equals match; selected 'Porto Alegre'; admin 'Rio Grande do Sul'; feature PPLA; population 1488252; 2.1 km from trusted local centroid; top-vs-next score margin 102.0; HTTP fallback was used because the GeoNames HTTPS certificate failed verification.
c_gyori_eto_4f17868c,Győr ETO FC,Gyori ETO FC,Nemzeti Bajnokság I,Hungary,Győr,ETO Park,47.68333,17.63512,https://www.geonames.org/3052009,geonames_searchJSON,high,False,,hungary__gyor__b940c759,GeoNames name_equals match; selected 'Győr'; admin 'Győr-Moson-Sopron megye'; feature PPLA; population 129301; 2.6 km from trusted local centroid; HTTP fallback was used because the GeoNames HTTPS certificate failed verification.
c_hajduk_split_903c0454,Hajduk Split,Hajduk Split,Croatian Football League,Croatia,Split,Stadion Poljud,43.50891,16.43915,https://www.geonames.org/3190261,geonames_searchJSON,high,False,,croatia__split__505fd585,GeoNames name_equals match; selected 'Split'; admin 'Splitsko-dalmatinska'; feature PPLA; population 149830; 1.3 km from trusted local centroid; HTTP fallback was used because the GeoNames HTTPS certificate failed verification.
c_hamburger_sv_bc4db90c,Hamburger SV,Hamburger SV,Bundesliga,Germany,Hamburg,Volksparkstadion,53.55073,9.99302,https://www.geonames.org/2911298,geonames_searchJSON,high,False,"Step 5 manual correction: raw/source variants 'Hamburg' and 'Hamburg SV' collapsed into Hamburger SV; Sander Tangvik, Miro Muheim, and Luka Vuskovic all mapped here.",germany__hamburg__47ca2dd1,GeoNames name_equals match; selected 'Hamburg'; admin 'Hamburg'; feature PPLA; population 1845229; 7.4 km from trusted local centroid; HTTP fallback was used because the GeoNames HTTPS certificate failed verification.
c_hannover_96_f304aed3,Hannover 96,Hannover 96,Bundesliga,Germany,Hanover,Niedersachsenstadion,52.37052,9.73322,https://www.geonames.org/2910831,geonames_searchJSON,low,False,,germany__hanover__22a6f26e,GeoNames name_equals match; selected 'Hannover'; admin 'Niedersachsen'; feature PPLA; population 515140; 1.2 km from trusted local centroid; spot-check recommended before promoting to final club coordinates; HTTP fallback was used because the GeoNames HTTPS certificate failed verification. NOTE: Verified.
c_hearts_422d35b1,Heart of Midlothian F.C.,Heart of Midlothian F.C.,Scottish Premiership,Scotland,Edinburgh,Tynecastle Park,55.95206,-3.19648,https://www.geonames.org/2650225,geonames_searchJSON,high,False,Step 5 manual review canonical rename from 'Hearts' to 'Heart of Midlothian F.C.'. Heart of Midlothian duplicate fixed,scotland__edinburgh__3400bd0f,GeoNames name_equals match; selected 'Edinburgh'; admin 'Scotland'; feature PPLA; population 514990; 0.2 km from trusted local centroid; HTTP fallback was used because the GeoNames HTTPS certificate failed verification.
c_heracles_almelo_e3b803be,Heracles Almelo,Heracles Almelo,Eredivisie,Netherlands,Almelo,Asito Stadion,52.35667,6.6625,https://www.geonames.org/2759887,geonames_searchJSON,high,False,,netherlands__almelo__1e93ed32,GeoNames name_equals match; selected 'Almelo'; admin 'Overijssel'; feature PPL; population 72725; 2.2 km from trusted local centroid; HTTP fallback was used because the GeoNames HTTPS certificate failed verification.
c_hibernian_8382e8fd,Hibernian F.C.,Hibernian F.C.,Scottish Premiership,Scotland,Edinburgh,Easter Road,55.95206,-3.19648,https://www.geonames.org/2650225,geonames_searchJSON,high,False,,scotland__edinburgh__3400bd0f,GeoNames name_equals match; selected 'Edinburgh'; admin 'Scotland'; feature PPLA; population 514990; 0.2 km from trusted local centroid; HTTP fallback was used because the GeoNames HTTPS certificate failed verification.
c_holstein_kiel_1496d34f,Holstein Kiel,Holstein Kiel,2. Bundesliga,Germany,Kiel,Holstein-Stadion,54.32133,10.13489,https://www.geonames.org/2891122,geonames_searchJSON,high,False,,germany__kiel__7a87a6cb,GeoNames name_equals match; selected 'Kiel'; admin 'Schleswig-Holstein'; feature PPLA; population 246601; 3.2 km from trusted local centroid; top-vs-next score margin 206.6; HTTP fallback was used because the GeoNames HTTPS certificate failed verification.
c_hradec_kralove_16ceb4be,FC Hradec Králové,FC Hradec Kralove,Czech First League,Czech Republic,Hradec Králové,Malšovická aréna,50.20923,15.83277,https://www.geonames.org/3074967,geonames_searchJSON,high,False,,czech-republic__hradec-kralove__88e1f027,GeoNames name_equals match; selected 'Hradec Králové'; admin 'Královéhradecký'; feature PPLA; population 90596; HTTP fallback was used because the GeoNames HTTPS certificate failed verification.
c_hull_city_c960b36b,Hull City A.F.C.,Hull City A.F.C.,Premier League,England,Kingston upon Hull,MKM Stadium,53.7446,-0.33525,https://www.geonames.org/2645425,geonames_searchJSON,high,False,,england__kingston-upon-hull__34358bcc,GeoNames name_equals match; selected 'Kingston upon Hull'; admin 'England'; feature PPLA2; population 314018; 2.1 km from trusted local centroid; HTTP fallback was used because the GeoNames HTTPS certificate failed verification.
c_huracan_1cba27c3,Club Atlético Huracán,Club Atletico Huracan,Primera División de Argentina,Argentina,Buenos Aires,Estadio Tomás Adolfo Ducó,-34.61315,-58.37723,https://www.geonames.org/3435910,geonames_searchJSON,high,False,,argentina__buenos-aires__c0c3273b,GeoNames name_equals match; selected 'Buenos Aires'; admin 'Buenos Aires C.F.'; feature PPLC; population 2891082; 6.1 km from trusted local centroid; top-vs-next score margin 104.0; HTTP fallback was used because the GeoNames HTTPS certificate failed verification.
c_ifk_norrkoping_3af5a7be,IFK Norrköping,IFK Norrkoping,Superettan,Sweden,Norrköping,Idrottsparken (Norrköping),58.59419,16.1826,https://www.geonames.org/2688368,geonames_searchJSON,high,False,,sweden__norrkoping__c2b01aa9,GeoNames name_equals match; selected 'Norrköping'; admin 'Östergötlands län'; feature PPLA2; population 93765; HTTP fallback was used because the GeoNames HTTPS certificate failed verification.
c_igdir_afc03fda,Iğdır F.K.,Igdir F.K.,TFF 1. Lig,Turkey,Iğdır,Iğdır City Stadium,39.92371,44.045,https://www.geonames.org/311665,geonames_searchJSON,high,False,,turkey__igdr__12d0f222,GeoNames name_equals match; selected 'Iğdır'; admin 'Iğdır'; feature PPLA; population 101700; top-vs-next score margin 129.6; HTTP fallback was used because the GeoNames HTTPS certificate failed verification.
c_independiente_4f0bb709,Club Atlético Independiente,Club Atletico Independiente,Primera División de Argentina,Argentina,Avellaneda,Estadio Libertadores de América,-34.66018,-58.36744,https://www.geonames.org/7535637,geonames_searchJSON,high,False,Step 5 manual review canonical rename from 'Independiente' to 'Club Atlético Independiente'.,argentina__avellaneda__53933d27,GeoNames name_equals match; selected 'Avellaneda'; admin 'Buenos Aires'; feature PPLA2; 1.2 km from trusted local centroid; top-vs-next score margin 69.9; HTTP fallback was used because the GeoNames HTTPS certificate failed verification.
c_independiente_del_valle_02bf2082,Independiente del Valle,Independiente del Valle,Ecuador Serie A,Ecuador,Amaguaña,Estadio Banco Guayaquil,-0.37568,-78.50615,https://www.geonames.org/3660711,geonames_searchJSON,high,False,,ecuador__amaguana__307d3913,GeoNames name_equals match; selected 'Amaguaña'; admin 'Pichincha'; feature PPL; 8.5 km from trusted local centroid; HTTP fallback was used because the GeoNames HTTPS certificate failed verification.
c_independiente_rivadavia_c01b9f67,Independiente Rivadavia,Independiente Rivadavia,Primera División de Argentina,Argentina,Mendoza,Estadio Bautista Gargantini,-32.88946,-68.84582,https://www.geonames.org/3844421,geonames_searchJSON,high,False,,argentina__mendoza__eb872bb5,GeoNames name_equals match; selected 'Mendoza'; admin 'Mendoza'; feature PPLA; population 114893; 1.6 km from trusted local centroid; HTTP fallback was used because the GeoNames HTTPS certificate failed verification.
c_inter_miami_12316fb2,Inter Miami,Inter Miami,Major League Soccer,United States,Miami,Nu Stadium,25.77427,-80.19366,https://www.geonames.org/4164138,geonames_searchJSON,high,False,,united-states__miami__a0eca83d,GeoNames name_equals match; selected 'Miami'; admin 'Florida'; feature PPLA2; population 487014; 23.3 km from trusted local centroid; top-vs-next score margin 74.7; HTTP fallback was used because the GeoNames HTTPS certificate failed verification.
c_inter_milan_ec07dd66,Inter Milan,Inter Milan,Serie A,Italy,Milan,Giuseppe Meazza Stadium,45.46427,9.18951,https://www.geonames.org/3173435,geonames_searchJSON,high,False,Merged aliases/source variants: Inter Milan; Internazionale.,italy__milan__c8407de8,GeoNames name_equals match; selected 'Milan'; admin 'Lombardia'; feature PPLA; population 1371498; 5.3 km from trusted local centroid; top-vs-next score margin 62.7; HTTP fallback was used because the GeoNames HTTPS certificate failed verification.
c_internacional_9f25f9e5,SC Internacional,SC Internacional,Campeonato Brasileiro Série A,Brazil,Porto Alegre,Estádio Beira-Rio,-30.03283,-51.23019,https://www.geonames.org/3452925,geonames_searchJSON,high,False,Merged aliases/source variants: Internacional; Internacional de Porto Alegre.,brazil__porto-alegre__1598d89e,GeoNames name_equals match; selected 'Porto Alegre'; admin 'Rio Grande do Sul'; feature PPLA; population 1488252; 2.1 km from trusted local centroid; top-vs-next score margin 102.0; HTTP fallback was used because the GeoNames HTTPS certificate failed verification.
c_ipswich_town_0526bcf8,Ipswich Town F.C.,Ipswich Town F.C.,Premier League,England,Ipswich,Portman Road,52.05917,1.15545,https://www.geonames.org/2646057,geonames_searchJSON,high,False,Merged aliases/source variants: Ipswich Town; Ipswich.,england__ipswich__23aff0ad,GeoNames name_equals match; selected 'Ipswich'; admin 'England'; feature PPLA2; population 178835; 0.8 km from trusted local centroid; HTTP fallback was used because the GeoNames HTTPS certificate failed verification.
c_ironi_kiryat_shmona_c6bc74ed,Ironi Kiryat Shmona,Ironi Kiryat Shmona,Israeli Premier League,Israel,Kiryat Shmona,Kiryat Shmona Municipal Stadium,33.21204,35.57044,https://www.geonames.org/293825,geonames_searchJSON,low,False,,israel__kiryat-shmona__76c2e1ab,GeoNames name_equals match; selected 'Qiryat Shmona'; admin 'הצפון'; feature PPL; population 22512; 0.3 km from trusted local centroid; spot-check recommended before promoting to final club coordinates; HTTP fallback was used because the GeoNames HTTPS certificate failed verification. NOTE: Manually corrected coordinates.
c_istanbul_basaksehir_eda9bc84,İstanbul Başakşehir F.K.,Istanbul Basaksehir,Süper Lig,Turkey,Başakşehir,Başakşehir Fatih Terim Stadium,41.106,28.791,https://www.geonames.org/6947639,geonames_searchJSON,high,False,,turkey__basaksehir__9e1040f1,GeoNames name_equals match; selected 'Başakşehir'; admin 'İstanbul'; feature PPLA2; population 193750; 2.4 km from trusted local centroid; HTTP fallback was used because the GeoNames HTTPS certificate failed verification.
c_jagiellonia_bialystok_14ff40df,Jagiellonia Białystok,Jagiellonia Bialystok,Ekstraklasa,Poland,Białystok,Stadion Miejski (Białystok),53.13333,23.16433,https://www.geonames.org/776069,geonames_searchJSON,high,False,,poland__biaystok__f527bcde,GeoNames name_equals match; selected 'Białystok'; admin 'Województwo podlaskie'; feature PPLA; population 295683; 3.3 km from trusted local centroid; HTTP fallback was used because the GeoNames HTTPS certificate failed verification.
c_jeonbuk_hyundai_06657775,Jeonbuk Hyundai,Jeonbuk Hyundai,K League 1,South Korea,Jeonju,Jeonju World Cup Stadium,35.82194,127.14889,https://www.geonames.org/1845457,geonames_searchJSON,high,False,,south-korea__jeonju__81ac771a,GeoNames name_equals match; selected 'Jeonju'; admin '전라북도'; feature PPLA; population 629618; 9.2 km from trusted local centroid; HTTP fallback was used because the GeoNames HTTPS certificate failed verification.
